original_postalcode,original_street,original_lat,original_lng,original_price,original_area,original_volume,original_floors,original_year_build,original_has_garden,original_type,original_photos,original_rooms,distance,formatted,lat,lon,name,housenumber,street,postcode,district,suburb,city,state,country,country_code,attribution,attribution_license,attribution_url
1081 HR Amsterdam,Pekkendam 8,52.32780000,4.86200000,1700000,242,720,2,1964,1,woonhuis,26,7,45.897876912526065,"Van Der Boechorststraat 40, 1081 BV Amsterdam, Netherlands",52.327514,4.861513,,40,Van Der Boechorststraat,1081BV,Zuid,Buitenveldert-West,Amsterdam,North Holland,Netherlands,nl,© OpenAddresses contributors,BSD-3-Clause License,
1060 PD Amsterdam,Pasubio 13,52.34910000,4.78350000,275000,84,281,2,1994,1,woonhuis,20,3,2.700931735231882,"De Alpen, 1060 PH Amsterdam, Netherlands",52.3502145,4.780774,De Alpen,,De Alpen,1060PH,,De Aker,Amsterdam,North Holland,Netherlands,nl,© OpenStreetMap contributors,Open Database License,https://www.openstreetmap.org/copyright
1098 CB Amsterdam,Hogeweg 2 A2,52.35290000,4.94220000,740000,143,450,2,1900,0,appartement,20,6,5.359207257903827,"Voltaplein 42, 1098 NS Amsterdam, Netherlands",52.3529478,4.9421899,,42,Voltaplein,1098NS,Oost,Oost,Amsterdam,North Holland,Netherlands,nl,© OpenStreetMap contributors,Open Database License,https://www.openstreetmap.org/copyright
1013 AW Amsterdam,Silodam 384,52.38770000,4.88390000,38000,0,0,1,0,0,parkeergelegenheid,1,1,22.600580536478933,"Houtmankade 58A, 1013 MZ Amsterdam, Netherlands",52.387801,4.883611,,58A,Houtmankade,1013MZ,West,Spaarndammer- en Zeeheldenbuurt,Amsterdam,North Holland,Netherlands,nl,© OpenAddresses contributors,BSD-3-Clause License,
1055 BN Amsterdam,Sanderijnstraat 29 III,52.38020000,4.85240000,285000,50,165,1,1940,1,appartement,21,3,1.7680981373911713,"Hertspieghelweg 8-3, 1055 KL Amsterdam, Netherlands",52.380187,4.852385,,8-3,Hertspieghelweg,1055KL,West,Landlust,Amsterdam,North Holland,Netherlands,nl,© OpenAddresses contributors,BSD-3-Clause License,
1066 DA Amsterdam,Gerrit van der Puijstraat 4,52.34600000,4.81630000,415000,129,441,3,1993,1,woonhuis,31,6,2.7080196663115323,"Antwerpenbaan, Laan van Vlaanderen, 1066 JL Amsterdam, Netherlands",52.3460233,4.8162884,Antwerpenbaan,,Laan van Vlaanderen,1066JL,Nieuw-West,Sloterpolder,Amsterdam,North Holland,Netherlands,nl,© OpenStreetMap contributors,Open Database License,https://www.openstreetmap.org/copyright
1017 BA Amsterdam,Beulingstraat 6 /B,52.36300000,4.89240000,650000,124,353,1,1906,0,appartement,25,2,0.6133852941470841,"Kerkstraat 245L, 1017 GW Amsterdam, Netherlands",52.3629963,4.8923933,,245L,Kerkstraat,1017GW,Centrum,Centrum,Amsterdam,North Holland,Netherlands,nl,© OpenStreetMap contributors,Open Database License,https://www.openstreetmap.org/copyright
1058 XK Amsterdam,Bonairestraat 64 hs,52.35790000,4.85100000,299000,59,227,1,1930,1,appartement,17,3,3.014316145532016,"Surinameplein, 1058 Amsterdam, Netherlands",52.357885,4.8518022,Surinameplein,,Surinameplein,1058,,,Amsterdam,North Holland,Netherlands,nl,© OpenStreetMap contributors,Open Database License,https://www.openstreetmap.org/copyright
1068 WX Amsterdam,Nicolaas Anslijnstraat 145,52.35920000,4.80520000,200000,82,200,2,1963,0,appartement,33,3,1.9680665618174287,"Osdorpplein 677, 1068 TC Amsterdam, Netherlands",52.3592167,4.8052096,,677,Osdorpplein,1068TC,Nieuw-West,Nieuw-West,Amsterdam,North Holland,Netherlands,nl,© OpenStreetMap contributors,Open Database License,https://www.openstreetmap.org/copyright
1092 BB Amsterdam,Beukenplein 53,52.35650000,4.92280000,395000,82,237,1,1997,0,appartement,18,3,22.97756790395036,"Tugelaweg 40G, 1092 VG Amsterdam, Netherlands",52.35637,4.923063,,40G,Tugelaweg,1092VG,Oost,Transvaalbuurt,Amsterdam,North Holland,Netherlands,nl,© OpenAddresses contributors,BSD-3-Clause License,
1082 MS Amsterdam,Gustav Mahlerplein 227,52.33110000,4.87420000,945000,157,471,1,2009,0,appartement,35,3,14.773310690004186,"Doddendaal 197, 1082 XT Amsterdam, Netherlands",52.3309672,4.8742065,,197,Doddendaal,1082XT,Zuid,Buitenveldert,Amsterdam,North Holland,Netherlands,nl,© OpenStreetMap contributors,Open Database License,https://www.openstreetmap.org/copyright
1055 RZ Amsterdam,Nieuwpoortstraat 86 B6,52.38020000,4.85240000,237500,49,174,1,2017,1,appartement,20,2,1.7680981373911713,"Hertspieghelweg 8-3, 1055 KL Amsterdam, Netherlands",52.380187,4.852385,,8-3,Hertspieghelweg,1055KL,West,Landlust,Amsterdam,North Holland,Netherlands,nl,© OpenAddresses contributors,BSD-3-Clause License,
1016 XM Amsterdam,Raamstraat 4,52.37090000,4.88160000,895000,135,464,6,1906,1,woonhuis,37,9,0,"Canal Ring Area of Amsterdam, Konijnenstraat 20, 1021 HR Amsterdam, Netherlands",52.3709412,4.8817323,Canal Ring Area of Amsterdam,20,Konijnenstraat,1021HR,,Centrum,Amsterdam,North Holland,Netherlands,nl,© OpenStreetMap contributors,Open Database License,https://www.openstreetmap.org/copyright
1106 DS Amsterdam,Wamelplein 107,52.29910000,4.97540000,139500,60,177,4,1983,0,appartement,20,2,2.9495910662578444,"Pannerdenstraat, 1106 BG Amsterdam, Netherlands",52.2991825,4.9753742,Pannerdenstraat,,Pannerdenstraat,1106BG,,Zuidoost,Amsterdam,North Holland,Netherlands,nl,© OpenStreetMap contributors,Open Database License,https://www.openstreetmap.org/copyright
1013 Amsterdam,Narva Eiland West (Bouwnr. 71),52.38770000,4.88390000,753919,142,355,2,2017,0,woonhuis,10,6,22.600580536478933,"Houtmankade 58A, 1013 MZ Amsterdam, Netherlands",52.387801,4.883611,,58A,Houtmankade,1013MZ,West,Spaarndammer- en Zeeheldenbuurt,Amsterdam,North Holland,Netherlands,nl,© OpenAddresses contributors,BSD-3-Clause License,
1072 CV Amsterdam,Albert Cuypstraat 40 -3,52.35350000,4.89020000,250000,37,89,1,1906,0,appartement,19,2,4.566243169923167,"Eerste Jan van der Heijdenstraat 109-HV, 1072 TN Amsterdam, Netherlands",52.3534607,4.8901805,,109-HV,Eerste Jan van der Heijdenstraat,1072TN,,Zuid,Amsterdam,North Holland,Netherlands,nl,© OpenStreetMap contributors,Open Database License,https://www.openstreetmap.org/copyright
1086 ZR Amsterdam,William Barlowlaan 56,52.36280000,4.98190000,765000,208,804,4,2009,1,woonhuis,48,8,0.535708752118495,"IJburglaan 257, 1086 ZJ Amsterdam, Netherlands",52.3627971,4.9819063,,257,IJburglaan,1086ZJ,Oost,Steigereiland-Noord,Amsterdam,North Holland,Netherlands,nl,© OpenStreetMap contributors,Open Database License,https://www.openstreetmap.org/copyright
1037 RS Amsterdam,Zijkanaal H-weg 61,52.42530000,4.86020000,585000,0,0,1,0,0,onbekend,1,1,73.85849053196387,"Zijkanaal H-weg 25, 1037 RR Amsterdam, Netherlands",52.425916,4.85957465,,25,Zijkanaal H-weg,1037RR,Noord,Oostzanerwerf,Amsterdam,North Holland,Netherlands,nl,© OpenStreetMap contributors,Open Database License,https://www.openstreetmap.org/copyright
1068 NK Amsterdam,Pieter Calandlaan 395,52.35920000,4.80520000,199000,80,270,2,1965,0,appartement,17,3,1.9680665618174287,"Osdorpplein 677, 1068 TC Amsterdam, Netherlands",52.3592167,4.8052096,,677,Osdorpplein,1068TC,Nieuw-West,Nieuw-West,Amsterdam,North Holland,Netherlands,nl,© OpenStreetMap contributors,Open Database License,https://www.openstreetmap.org/copyright
1064 HB Amsterdam,Slotermeerlaan 18 B,52.37420000,4.82180000,395000,119,315,1,1999,0,appartement,14,3,6.234539033066015,"A.J. Krophollerstraat 6, 1064 DB Amsterdam, Netherlands",52.3742289,4.8217213,,6,A.J. Krophollerstraat,1064DB,,Nieuw-West,Amsterdam,North Holland,Netherlands,nl,© OpenStreetMap contributors,Open Database License,https://www.openstreetmap.org/copyright
1019 MA Amsterdam,Levantplein 1 *,52.37330000,4.93910000,1960000,407,1400,4,1992,0,woonhuis,41,10,5.763955155170856,"C.J.K. van Aalststraat 44, 1019 JZ Amsterdam, Netherlands",52.3732484,4.9391081,,44,C.J.K. van Aalststraat,1019JZ,,Eastern Docklands,Amsterdam,North Holland,Netherlands,nl,© OpenStreetMap contributors,Open Database License,https://www.openstreetmap.org/copyright
1055 NH Amsterdam,Admiraal De Ruijterweg 482,52.38020000,4.85240000,300000,62,233,1,1931,1,appartement,18,3,1.7680981373911713,"Hertspieghelweg 8-3, 1055 KL Amsterdam, Netherlands",52.380187,4.852385,,8-3,Hertspieghelweg,1055KL,West,Landlust,Amsterdam,North Holland,Netherlands,nl,© OpenAddresses contributors,BSD-3-Clause License,
1058 NK Amsterdam,Legmeerplein 19 III,52.35790000,4.85100000,295000,61,155,1,1932,0,appartement,18,3,3.014316145532016,"Surinameplein, 1058 Amsterdam, Netherlands",52.357885,4.8518022,Surinameplein,,Surinameplein,1058,,,Amsterdam,North Holland,Netherlands,nl,© OpenStreetMap contributors,Open Database License,https://www.openstreetmap.org/copyright
1051 NW Amsterdam,Haarlemmerweg 271 -A,52.38180000,4.87170000,375000,80,192,9,1996,0,appartement,15,3,4.222585482550074,"Van Beuningenstraat 194E, 1051 XZ Amsterdam, Netherlands",52.381764,4.8716802,,194E,Van Beuningenstraat,1051XZ,West,West,Amsterdam,North Holland,Netherlands,nl,© OpenStreetMap contributors,Open Database License,https://www.openstreetmap.org/copyright
1015 NT Amsterdam,Tweede Anjeliersdwarsstraat 8 C,52.37840000,4.88360000,275000,41,188,2,1974,0,appartement,18,3,11.715735159463115,"Westerstraat 105-1, 1015 LX Amsterdam, Netherlands",52.3783013,4.8836604,,105-1,Westerstraat,1015LX,Centrum,Centrum,Amsterdam,North Holland,Netherlands,nl,© OpenStreetMap contributors,Open Database License,https://www.openstreetmap.org/copyright
1066 PB Amsterdam,Mechelensingel 49,52.34600000,4.81630000,319500,110,377,3,1992,1,woonhuis,29,4,2.7080196663115323,"Antwerpenbaan, Laan van Vlaanderen, 1066 JL Amsterdam, Netherlands",52.3460233,4.8162884,Antwerpenbaan,,Laan van Vlaanderen,1066JL,Nieuw-West,Sloterpolder,Amsterdam,North Holland,Netherlands,nl,© OpenStreetMap contributors,Open Database License,https://www.openstreetmap.org/copyright
1057 GV Amsterdam,Van Speijkstraat 135 huis,52.36770000,4.85510000,750000,135,452,2,1924,1,appartement,28,4,0.972402630340097,"Maranatha, Cabotstraat 33, 1057 VP Amsterdam, Netherlands",52.36786965,4.855041608946916,Maranatha,33,Cabotstraat,1057VP,West,West,Amsterdam,North Holland,Netherlands,nl,© OpenStreetMap contributors,Open Database License,https://www.openstreetmap.org/copyright
1087 LB Amsterdam,Ben van Meerendonkstraat 39,52.35390000,5.00050000,250000,81,263,1,2001,0,appartement,27,3,14.547622573122053,"Maria Austriastraat 987, 1087 JB Amsterdam, Netherlands",52.353989,5.000657,,987,Maria Austriastraat,1087JB,Oost,IJburg West,Amsterdam,North Holland,Netherlands,nl,© OpenAddresses contributors,BSD-3-Clause License,
1019 CV Amsterdam,Dick Greinerstraat 86,52.37330000,4.93910000,250000,63,190,1,1987,0,appartement,22,3,5.763955155170856,"C.J.K. van Aalststraat 44, 1019 JZ Amsterdam, Netherlands",52.3732484,4.9391081,,44,C.J.K. van Aalststraat,1019JZ,,Eastern Docklands,Amsterdam,North Holland,Netherlands,nl,© OpenStreetMap contributors,Open Database License,https://www.openstreetmap.org/copyright
1073 TB Amsterdam,Karel du Jardinstraat 53 HS+PP,52.35320000,4.89820000,550000,83,328,1,2000,1,appartement,39,3,2.2512175683180513,"Van Ostadestraat 209K, 1073 TN Amsterdam, Netherlands",52.3532055,4.8981681,,209K,Van Ostadestraat,1073TN,Zuid,Zuid,Amsterdam,North Holland,Netherlands,nl,© OpenStreetMap contributors,Open Database License,https://www.openstreetmap.org/copyright
1036 KC Amsterdam,Kwekerijlaan 34,52.40820000,4.90250000,400000,136,458,3,2008,1,woonhuis,32,7,6.7905288203880145,"Boomgaardlaan 61, 1036 KJ Amsterdam, Netherlands",52.4082276,4.9024107,,61,Boomgaardlaan,1036KJ,Noord,Noord,Amsterdam,North Holland,Netherlands,nl,© OpenStreetMap contributors,Open Database License,https://www.openstreetmap.org/copyright
1019 PE Amsterdam,Bogortuin 187,52.37330000,4.93910000,575000,110,300,8,2001,0,appartement,23,3,5.763955155170856,"C.J.K. van Aalststraat 44, 1019 JZ Amsterdam, Netherlands",52.3732484,4.9391081,,44,C.J.K. van Aalststraat,1019JZ,,Eastern Docklands,Amsterdam,North Holland,Netherlands,nl,© OpenStreetMap contributors,Open Database License,https://www.openstreetmap.org/copyright
1075 CV Amsterdam,Koninginneweg 257 hs,52.35180000,4.85860000,1350000,210,590,3,1903,1,appartement,34,7,12.51019917998629,"Koninginneweg 237-H, 1075 CT Amsterdam, Netherlands",52.3519024,4.8585237,,237-H,Koninginneweg,1075CT,Zuid,Zuid,Amsterdam,North Holland,Netherlands,nl,© OpenStreetMap contributors,Open Database License,https://www.openstreetmap.org/copyright
1076 KS Amsterdam,Argonautenstraat 48 2,52.34550000,4.86070000,300000,62,210,1,1935,0,appartement,12,3,10.92988934570428,"Stadionweg 227-1, 1076 NT Amsterdam, Netherlands",52.3454054,4.8607437,,227-1,Stadionweg,1076NT,Zuid,Zuid,Amsterdam,North Holland,Netherlands,nl,© OpenStreetMap contributors,Open Database License,https://www.openstreetmap.org/copyright
1068 JH Amsterdam,Eastonstraat 227 *,52.35920000,4.80520000,225000,77,220,1,1964,0,appartement,18,4,1.9680665618174287,"Osdorpplein 677, 1068 TC Amsterdam, Netherlands",52.3592167,4.8052096,,677,Osdorpplein,1068TC,Nieuw-West,Nieuw-West,Amsterdam,North Holland,Netherlands,nl,© OpenStreetMap contributors,Open Database License,https://www.openstreetmap.org/copyright
1082 EW Amsterdam,Koxhorn 19 1,52.33110000,4.87420000,325000,76,220,1,1962,0,appartement,29,3,14.773310690004186,"Doddendaal 197, 1082 XT Amsterdam, Netherlands",52.3309672,4.8742065,,197,Doddendaal,1082XT,Zuid,Buitenveldert,Amsterdam,North Holland,Netherlands,nl,© OpenStreetMap contributors,Open Database License,https://www.openstreetmap.org/copyright
1024 CN Amsterdam,Ganzenveldstraat 55,52.39390000,4.95470000,250000,91,245,2,1965,1,woonhuis,22,5,5.346782837843484,"Zandvoortstraat 70, 1024 WE Amsterdam, Netherlands",52.3938521,4.9546931,,70,Zandvoortstraat,1024WE,Noord,Waterlandpleinbuurt,Amsterdam,North Holland,Netherlands,nl,© OpenStreetMap contributors,Open Database License,https://www.openstreetmap.org/copyright
1013 SM Amsterdam,Van Noordtstraat 9 -B,52.38770000,4.88390000,175000,32,95,1,1901,0,appartement,23,1,22.600580536478933,"Houtmankade 58A, 1013 MZ Amsterdam, Netherlands",52.387801,4.883611,,58A,Houtmankade,1013MZ,West,Spaarndammer- en Zeeheldenbuurt,Amsterdam,North Holland,Netherlands,nl,© OpenAddresses contributors,BSD-3-Clause License,
1011 VM Amsterdam,Rapenburgerstraat 171 C,52.37100000,4.90410000,725000,140,588,1,1790,0,appartement,27,4,0.9358233445245736,"Keizersbrug, 1011 KV Amsterdam, Netherlands",52.3710995,4.9040025,Keizersbrug,,Keizersbrug,1011KV,,Centrum,Amsterdam,North Holland,Netherlands,nl,© OpenStreetMap contributors,Open Database License,https://www.openstreetmap.org/copyright
1097 EW Amsterdam,Maxwellstraat 2,52.34650000,4.93010000,650000,155,500,2,1945,1,woonhuis,46,5,2.796740279342611,"Darwinplantsoen 6, 1097 EX Amsterdam, Netherlands",52.3465023,4.930059,,6,Darwinplantsoen,1097EX,Oost,Oost,Amsterdam,North Holland,Netherlands,nl,© OpenStreetMap contributors,Open Database License,https://www.openstreetmap.org/copyright
1074 JH Amsterdam,Amsteldijk 724,52.35390000,4.90420000,519000,0,0,1,0,0,onbekend,1,1,2.0789574675973093,"Kuipersstraat 63-H, 1074 EG Amsterdam, Netherlands",52.353913,4.904222,,63-H,Kuipersstraat,1074EG,Zuid,Nieuwe Pijp,Amsterdam,North Holland,Netherlands,nl,© OpenAddresses contributors,BSD-3-Clause License,
1102 VN Amsterdam,Alfred Döblinstraat 126,52.31660000,4.95170000,185000,70,179,1,1985,0,appartement,1,3,49.79663637578256,"Raoul Wallenberghofje 3, 1102 AH Amsterdam, Netherlands",52.316997,4.952039,,3,Raoul Wallenberghofje,1102AH,Zuidoost,Bijlmer Centrum,Amsterdam,North Holland,Netherlands,nl,© OpenAddresses contributors,BSD-3-Clause License,
1054 JK Amsterdam,Gerard Brandtstraat 18,52.36170000,4.86690000,1650000,297,1093,5,1880,1,woonhuis,28,10,12.085615741751521,"Brederodestraat 15-2, 1054 MP Amsterdam, Netherlands",52.361808,4.86692,,15-2,Brederodestraat,1054MP,West,Helmersbuurt,Amsterdam,North Holland,Netherlands,nl,© OpenAddresses contributors,BSD-3-Clause License,
1076 CA Amsterdam,Donarstraat 11 III,52.34550000,4.86070000,800000,125,428,3,1931,1,appartement,46,4,10.92988934570428,"Stadionweg 227-1, 1076 NT Amsterdam, Netherlands",52.3454054,4.8607437,,227-1,Stadionweg,1076NT,Zuid,Zuid,Amsterdam,North Holland,Netherlands,nl,© OpenStreetMap contributors,Open Database License,https://www.openstreetmap.org/copyright
1071 VV Amsterdam,Cornelis Anthoniszstraat 30 III,52.35520000,4.87890000,350000,63,210,3,1900,0,appartement,18,3,19.593762206140674,"Wouwermanstraat 26-H, 1071 LZ Amsterdam, Netherlands",52.3550303,4.8789777,,26-H,Wouwermanstraat,1071LZ,Zuid,Zuid,Amsterdam,North Holland,Netherlands,nl,© OpenStreetMap contributors,Open Database License,https://www.openstreetmap.org/copyright
1019 TM Amsterdam,Wisselstraat 2,52.37330000,4.93910000,599000,134,418,3,1999,0,appartement,46,4,5.763955155170856,"C.J.K. van Aalststraat 44, 1019 JZ Amsterdam, Netherlands",52.3732484,4.9391081,,44,C.J.K. van Aalststraat,1019JZ,,Eastern Docklands,Amsterdam,North Holland,Netherlands,nl,© OpenStreetMap contributors,Open Database License,https://www.openstreetmap.org/copyright
1108 CB Amsterdam,Leerdamhof 314,52.30820000,4.98070000,180000,87,220,2,1980,0,appartement,31,3,60.948473119679264,"Openbare Daltonschool Nellestein, Leksmondplein 31, 1108 EL Amsterdam, Netherlands",52.308666,4.980228,Openbare Daltonschool Nellestein,31,Leksmondplein,1108EL,Zuidoost,Nellestein,Amsterdam,North Holland,Netherlands,nl,© OpenStreetMap contributors,Open Database License,https://www.openstreetmap.org/copyright
1026 CD Amsterdam,Durgerdammerdijk 93,52.37880000,4.99050000,650000,110,370,2,1906,1,woonhuis,43,4,64.2462793297341,"Durgerdammerdijk 109, 1026 CE Amsterdam, Netherlands",52.3782683,4.9908704,,109,Durgerdammerdijk,1026CE,Noord,Waterland,Amsterdam,North Holland,Netherlands,nl,© OpenStreetMap contributors,Open Database License,https://www.openstreetmap.org/copyright
1071 CH Amsterdam,Pieter Cornelisz. Hooftstraat 176,52.35520000,4.87890000,4250000,294,986,2,2016,1,appartement,42,3,19.593762206140674,"Wouwermanstraat 26-H, 1071 LZ Amsterdam, Netherlands",52.3550303,4.8789777,,26-H,Wouwermanstraat,1071LZ,Zuid,Zuid,Amsterdam,North Holland,Netherlands,nl,© OpenStreetMap contributors,Open Database License,https://www.openstreetmap.org/copyright
1058 DS Amsterdam,Postjeskade 183 I,52.35790000,4.85100000,275000,60,198,1,1935,0,appartement,30,4,3.014316145532016,"Surinameplein, 1058 Amsterdam, Netherlands",52.357885,4.8518022,Surinameplein,,Surinameplein,1058,,,Amsterdam,North Holland,Netherlands,nl,© OpenStreetMap contributors,Open Database License,https://www.openstreetmap.org/copyright
1016 PA Amsterdam,Rozenstraat 200 -G,52.37090000,4.88160000,285000,42,110,1,2007,1,appartement,21,2,0,"Canal Ring Area of Amsterdam, Konijnenstraat 20, 1021 HR Amsterdam, Netherlands",52.3709412,4.8817323,Canal Ring Area of Amsterdam,20,Konijnenstraat,1021HR,,Centrum,Amsterdam,North Holland,Netherlands,nl,© OpenStreetMap contributors,Open Database License,https://www.openstreetmap.org/copyright
1021 NP Amsterdam,Buitenzagerij 63,52.38460000,4.91720000,200000,41,130,4,1983,0,appartement,34,2,29.557856964460562,"Meeuwenlaan 143, 1021 JA Amsterdam, Netherlands",52.384801,4.916915,,143,Meeuwenlaan,1021JA,Noord,IJplein/Vogelbuurt,Amsterdam,North Holland,Netherlands,nl,© OpenAddresses contributors,BSD-3-Clause License,
1083 GR Amsterdam,Arent Janszoon Ernststraat 91,52.33020000,4.88440000,385000,115,300,1,1969,0,appartement,19,3,13.788550537185772,"Sijpestein 1, 1083 XH Amsterdam, Netherlands",52.3300849,4.8843245,,1,Sijpestein,1083XH,Zuid,Buitenveldert-Oost,Amsterdam,North Holland,Netherlands,nl,© OpenStreetMap contributors,Open Database License,https://www.openstreetmap.org/copyright
1072 XG Amsterdam,Daniël Stalpertstraat 22 III,52.35350000,4.89020000,325000,56,155,2,1882,0,appartement,15,3,4.566243169923167,"Eerste Jan van der Heijdenstraat 109-HV, 1072 TN Amsterdam, Netherlands",52.3534607,4.8901805,,109-HV,Eerste Jan van der Heijdenstraat,1072TN,,Zuid,Amsterdam,North Holland,Netherlands,nl,© OpenStreetMap contributors,Open Database License,https://www.openstreetmap.org/copyright
1024 CX Amsterdam,Markengouw 131,52.39390000,4.95470000,385000,120,403,3,2016,1,woonhuis,37,5,5.346782837843484,"Zandvoortstraat 70, 1024 WE Amsterdam, Netherlands",52.3938521,4.9546931,,70,Zandvoortstraat,1024WE,Noord,Waterlandpleinbuurt,Amsterdam,North Holland,Netherlands,nl,© OpenStreetMap contributors,Open Database License,https://www.openstreetmap.org/copyright
1069 KE Amsterdam,Johan Hofmanstraat 90,52.35560000,4.79070000,429000,138,400,3,2009,1,woonhuis,22,5,25.493785079984995,"Langswater 384, 1069 EC Amsterdam, Netherlands",52.355533,4.790341,,384,Langswater,1069EC,Nieuw-West,De Punt,Amsterdam,North Holland,Netherlands,nl,© OpenAddresses contributors,BSD-3-Clause License,
1064 CK Amsterdam,Burgemeester Hogguerstraat 13,52.37420000,4.82180000,37500,0,0,1,0,0,parkeergelegenheid,2,1,6.234539033066015,"A.J. Krophollerstraat 6, 1064 DB Amsterdam, Netherlands",52.3742289,4.8217213,,6,A.J. Krophollerstraat,1064DB,,Nieuw-West,Amsterdam,North Holland,Netherlands,nl,© OpenStreetMap contributors,Open Database License,https://www.openstreetmap.org/copyright
1057 DB Amsterdam,Hoofdweg 148 -II,52.36770000,4.85510000,260000,55,185,1,1906,0,appartement,30,3,0.972402630340097,"Maranatha, Cabotstraat 33, 1057 VP Amsterdam, Netherlands",52.36786965,4.855041608946916,Maranatha,33,Cabotstraat,1057VP,West,West,Amsterdam,North Holland,Netherlands,nl,© OpenStreetMap contributors,Open Database License,https://www.openstreetmap.org/copyright
1083 DD Amsterdam,Van Heenvlietlaan 299 nvt,52.33020000,4.88440000,36000,0,0,1,0,0,parkeergelegenheid,1,1,13.788550537185772,"Sijpestein 1, 1083 XH Amsterdam, Netherlands",52.3300849,4.8843245,,1,Sijpestein,1083XH,Zuid,Buitenveldert-Oost,Amsterdam,North Holland,Netherlands,nl,© OpenStreetMap contributors,Open Database License,https://www.openstreetmap.org/copyright
1063 ML Amsterdam,Willem Kraanstraat 48,52.38140000,4.82590000,149000,42,110,1,1957,0,appartement,24,2,2.5954411684806953,"Van Gilsestraat 13-H, 1063 VS Amsterdam, Netherlands",52.3814121,4.8259327,,13-H,Van Gilsestraat,1063VS,Nieuw-West,Slotermeer,Amsterdam,North Holland,Netherlands,nl,© OpenStreetMap contributors,Open Database License,https://www.openstreetmap.org/copyright
1012 DV Amsterdam,Oudezijds Achterburgwal 140 ah,52.37350000,4.89510000,625000,101,300,4,1906,1,appartement,20,4,21.629838672501716,"Warmoesstraat 157, 1012 JC Amsterdam, Netherlands",52.373392,4.895365,,157,Warmoesstraat,1012JC,Centrum,Oudezijde,Amsterdam,North Holland,Netherlands,nl,© OpenAddresses contributors,BSD-3-Clause License,
1087 JE Amsterdam,Sem Presserhof 127,52.35390000,5.00050000,450000,132,395,3,2005,1,woonhuis,32,4,14.547622573122053,"Maria Austriastraat 987, 1087 JB Amsterdam, Netherlands",52.353989,5.000657,,987,Maria Austriastraat,1087JB,Oost,IJburg West,Amsterdam,North Holland,Netherlands,nl,© OpenAddresses contributors,BSD-3-Clause License,
1087 BV Amsterdam,Oeverzeggestraat 26,52.35390000,5.00050000,550000,134,495,3,2005,0,woonhuis,24,5,14.547622573122053,"Maria Austriastraat 987, 1087 JB Amsterdam, Netherlands",52.353989,5.000657,,987,Maria Austriastraat,1087JB,Oost,IJburg West,Amsterdam,North Holland,Netherlands,nl,© OpenAddresses contributors,BSD-3-Clause License,
1073 TE Amsterdam,Karel du Jardinstraat 84 -I,52.35320000,4.89820000,289000,52,143,1,1916,0,appartement,15,3,2.2512175683180513,"Van Ostadestraat 209K, 1073 TN Amsterdam, Netherlands",52.3532055,4.8981681,,209K,Van Ostadestraat,1073TN,Zuid,Zuid,Amsterdam,North Holland,Netherlands,nl,© OpenStreetMap contributors,Open Database License,https://www.openstreetmap.org/copyright
1076 NC Amsterdam,Van Tuyll van Serooskerkenplein 50 -III,52.34550000,4.86070000,300000,62,161,1,1906,0,appartement,23,4,10.92988934570428,"Stadionweg 227-1, 1076 NT Amsterdam, Netherlands",52.3454054,4.8607437,,227-1,Stadionweg,1076NT,Zuid,Zuid,Amsterdam,North Holland,Netherlands,nl,© OpenStreetMap contributors,Open Database License,https://www.openstreetmap.org/copyright
1104 DH Amsterdam,Koolpalmhof 26,52.31640000,4.97760000,265000,130,360,1,2003,0,woonhuis,1,5,0,"De Kameleon, Kruitberghof 58, 1104 SE Amsterdam, Netherlands",52.3163359,4.9776084,De Kameleon,58,Kruitberghof,1104SE,,Zuidoost,Amsterdam,North Holland,Netherlands,nl,© OpenStreetMap contributors,Open Database License,https://www.openstreetmap.org/copyright
1083 HM Amsterdam,Tommaso Albinonistraat 8,52.33020000,4.88440000,420000,118,360,1,2006,0,appartement,28,3,13.788550537185772,"Sijpestein 1, 1083 XH Amsterdam, Netherlands",52.3300849,4.8843245,,1,Sijpestein,1083XH,Zuid,Buitenveldert-Oost,Amsterdam,North Holland,Netherlands,nl,© OpenStreetMap contributors,Open Database License,https://www.openstreetmap.org/copyright
1096 DS Amsterdam,STATE Amsterdam (Bouwnr. 296),52.33870000,4.91970000,635861,103,258,1,2016,0,appartement,2,3,0.9954410102966944,"Amstelvlietstraat 408, 1096 GG Amsterdam, Netherlands",52.3387075,4.919692,,408,Amstelvlietstraat,1096GG,Oost,De Omval,Amsterdam,North Holland,Netherlands,nl,© OpenStreetMap contributors,Open Database License,https://www.openstreetmap.org/copyright
1051 HM Amsterdam,Van Hallstraat 272,52.38180000,4.87170000,275000,60,144,1,1910,0,appartement,26,3,4.222585482550074,"Van Beuningenstraat 194E, 1051 XZ Amsterdam, Netherlands",52.381764,4.8716802,,194E,Van Beuningenstraat,1051XZ,West,West,Amsterdam,North Holland,Netherlands,nl,© OpenStreetMap contributors,Open Database License,https://www.openstreetmap.org/copyright
1081 EK Amsterdam,Bolestein 574,52.32780000,4.86200000,360000,93,290,1,1967,0,appartement,1,3,45.897876912526065,"Van Der Boechorststraat 40, 1081 BV Amsterdam, Netherlands",52.327514,4.861513,,40,Van Der Boechorststraat,1081BV,Zuid,Buitenveldert-West,Amsterdam,North Holland,Netherlands,nl,© OpenAddresses contributors,BSD-3-Clause License,
1023 EG Amsterdam,Kwadijkerstraat 5,52.38990000,4.94700000,225000,54,235,2,1927,1,woonhuis,34,3,11.813501088095425,"Oudorperstraat 17-1, 1023 SR Amsterdam, Netherlands",52.38987,4.947167,,17-1,Oudorperstraat,1023SR,Noord,Tuindorp Nieuwendam,Amsterdam,North Holland,Netherlands,nl,© OpenAddresses contributors,BSD-3-Clause License,
1066 NN Amsterdam,Vorselaarstraat 8,52.34600000,4.81630000,315000,102,341,3,1992,1,woonhuis,22,4,2.7080196663115323,"Antwerpenbaan, Laan van Vlaanderen, 1066 JL Amsterdam, Netherlands",52.3460233,4.8162884,Antwerpenbaan,,Laan van Vlaanderen,1066JL,Nieuw-West,Sloterpolder,Amsterdam,North Holland,Netherlands,nl,© OpenStreetMap contributors,Open Database License,https://www.openstreetmap.org/copyright
1079 WZ Amsterdam,Zomerdijkstraat 23 HS,52.34230000,4.90360000,315000,56,212,1,1930,1,appartement,24,2,7.649499795287331,"Zomerdijkstraat 23-3, 1079 WZ Amsterdam, Netherlands",52.3423661,4.9035688,,23-3,Zomerdijkstraat,1079WZ,Zuid,Rijnbuurt,Amsterdam,North Holland,Netherlands,nl,© OpenStreetMap contributors,Open Database License,https://www.openstreetmap.org/copyright
1053 HB Amsterdam,Jacob van Lennepstraat 31 -1 A,52.36680000,4.86810000,200000,35,105,1,1906,0,appartement,24,1,0,"De Hallen, Hannie Dankbaarpassage 20, 1053 RS Amsterdam, Netherlands",52.3667658,4.868139,De Hallen,20,Hannie Dankbaarpassage,1053RS,,West,Amsterdam,North Holland,Netherlands,nl,© OpenStreetMap contributors,Open Database License,https://www.openstreetmap.org/copyright
1064 PR Amsterdam,Tretjakovlaan 68,52.37420000,4.82180000,339000,105,250,16,1998,0,appartement,25,3,6.234539033066015,"A.J. Krophollerstraat 6, 1064 DB Amsterdam, Netherlands",52.3742289,4.8217213,,6,A.J. Krophollerstraat,1064DB,,Nieuw-West,Amsterdam,North Holland,Netherlands,nl,© OpenStreetMap contributors,Open Database License,https://www.openstreetmap.org/copyright
1074 EH Amsterdam,Kuipersstraat 75 I,52.35390000,4.90420000,299000,51,170,4,1906,0,appartement,22,2,2.0789574675973093,"Kuipersstraat 63-H, 1074 EG Amsterdam, Netherlands",52.353913,4.904222,,63-H,Kuipersstraat,1074EG,Zuid,Nieuwe Pijp,Amsterdam,North Holland,Netherlands,nl,© OpenAddresses contributors,BSD-3-Clause License,
1074 CE Amsterdam,Govert Flinckstraat 332,52.35390000,4.90420000,1150000,244,802,4,1881,1,woonhuis,31,7,2.0789574675973093,"Kuipersstraat 63-H, 1074 EG Amsterdam, Netherlands",52.353913,4.904222,,63-H,Kuipersstraat,1074EG,Zuid,Nieuwe Pijp,Amsterdam,North Holland,Netherlands,nl,© OpenAddresses contributors,BSD-3-Clause License,
1058 EK Amsterdam,Nachtwachtlaan 279,52.35790000,4.85100000,385000,124,319,1,1970,0,appartement,19,5,3.014316145532016,"Surinameplein, 1058 Amsterdam, Netherlands",52.357885,4.8518022,Surinameplein,,Surinameplein,1058,,,Amsterdam,North Holland,Netherlands,nl,© OpenStreetMap contributors,Open Database License,https://www.openstreetmap.org/copyright
1052 NH Amsterdam,De Clercqstraat 56 III,52.37700000,4.87400000,650000,124,436,2,1906,0,appartement,34,4,2.189558787067854,"Frederik Hendrikstraat 48-1, 1052 HW Amsterdam, Netherlands",52.3770196,4.8739969,,48-1,Frederik Hendrikstraat,1052HW,West,West,Amsterdam,North Holland,Netherlands,nl,© OpenStreetMap contributors,Open Database License,https://www.openstreetmap.org/copyright
1069 EH Amsterdam,Langswater 899,52.35560000,4.79070000,159000,61,165,1,1970,0,appartement,19,3,25.493785079984995,"Langswater 384, 1069 EC Amsterdam, Netherlands",52.355533,4.790341,,384,Langswater,1069EC,Nieuw-West,De Punt,Amsterdam,North Holland,Netherlands,nl,© OpenAddresses contributors,BSD-3-Clause License,
1102 XE Amsterdam,Charlotte Brontéstraat 36,52.31660000,4.95170000,155000,69,173,1,1984,0,appartement,16,3,49.79663637578256,"Raoul Wallenberghofje 3, 1102 AH Amsterdam, Netherlands",52.316997,4.952039,,3,Raoul Wallenberghofje,1102AH,Zuidoost,Bijlmer Centrum,Amsterdam,North Holland,Netherlands,nl,© OpenAddresses contributors,BSD-3-Clause License,
1051 DC Amsterdam,De Kempenaerstraat 183 hs.,52.38180000,4.87170000,360000,76,210,1,1998,1,appartement,13,3,4.222585482550074,"Van Beuningenstraat 194E, 1051 XZ Amsterdam, Netherlands",52.381764,4.8716802,,194E,Van Beuningenstraat,1051XZ,West,West,Amsterdam,North Holland,Netherlands,nl,© OpenStreetMap contributors,Open Database License,https://www.openstreetmap.org/copyright
1066 WS Amsterdam,Denderhof 8,52.34600000,4.81630000,275000,80,295,2,1996,1,woonhuis,33,2,2.7080196663115323,"Antwerpenbaan, Laan van Vlaanderen, 1066 JL Amsterdam, Netherlands",52.3460233,4.8162884,Antwerpenbaan,,Laan van Vlaanderen,1066JL,Nieuw-West,Sloterpolder,Amsterdam,North Holland,Netherlands,nl,© OpenStreetMap contributors,Open Database License,https://www.openstreetmap.org/copyright
1091 VA Amsterdam,Vrolikstraat 259 A,52.35560000,4.91350000,300000,60,150,1,1981,1,appartement,16,2,5.562369844050275,"Derde Oosterparkstraat 11E, 1091 JS Amsterdam, Netherlands",52.3556497,4.9135093,,11E,Derde Oosterparkstraat,1091JS,Oost,Oost,Amsterdam,North Holland,Netherlands,nl,© OpenStreetMap contributors,Open Database License,https://www.openstreetmap.org/copyright
1075 HV Amsterdam,Emmastraat 22,52.35180000,4.85860000,4700000,460,1400,6,1910,1,woonhuis,18,15,12.51019917998629,"Koninginneweg 237-H, 1075 CT Amsterdam, Netherlands",52.3519024,4.8585237,,237-H,Koninginneweg,1075CT,Zuid,Zuid,Amsterdam,North Holland,Netherlands,nl,© OpenStreetMap contributors,Open Database License,https://www.openstreetmap.org/copyright
1012 WP Amsterdam,Singel 455 E,52.37350000,4.89510000,1750000,169,854,1,1998,1,appartement,24,2,21.629838672501716,"Warmoesstraat 157, 1012 JC Amsterdam, Netherlands",52.373392,4.895365,,157,Warmoesstraat,1012JC,Centrum,Oudezijde,Amsterdam,North Holland,Netherlands,nl,© OpenAddresses contributors,BSD-3-Clause License,
1068 JH Amsterdam,Eastonstraat 223,52.35920000,4.80520000,200000,76,245,1,1964,0,appartement,33,3,1.9680665618174287,"Osdorpplein 677, 1068 TC Amsterdam, Netherlands",52.3592167,4.8052096,,677,Osdorpplein,1068TC,Nieuw-West,Nieuw-West,Amsterdam,North Holland,Netherlands,nl,© OpenStreetMap contributors,Open Database License,https://www.openstreetmap.org/copyright
1066 ER Amsterdam,Akersluis 11,52.34600000,4.81630000,589000,0,0,1,0,0,onbekend,1,1,2.7080196663115323,"Antwerpenbaan, Laan van Vlaanderen, 1066 JL Amsterdam, Netherlands",52.3460233,4.8162884,Antwerpenbaan,,Laan van Vlaanderen,1066JL,Nieuw-West,Sloterpolder,Amsterdam,North Holland,Netherlands,nl,© OpenStreetMap contributors,Open Database License,https://www.openstreetmap.org/copyright
1079 NG Amsterdam,President Kennedylaan 62 II,52.34230000,4.90360000,625000,121,376,2,1934,1,appartement,25,5,7.649499795287331,"Zomerdijkstraat 23-3, 1079 WZ Amsterdam, Netherlands",52.3423661,4.9035688,,23-3,Zomerdijkstraat,1079WZ,Zuid,Rijnbuurt,Amsterdam,North Holland,Netherlands,nl,© OpenStreetMap contributors,Open Database License,https://www.openstreetmap.org/copyright
1061 BM Amsterdam,Blauwvoetstraat 61,52.37360000,4.83950000,250000,40,106,1,2009,0,appartement,15,2,19.250318965195206,"Rinus Michelslaan 14A, 1061 MB Amsterdam, Netherlands",52.373438,4.8394,,14A,Rinus Michelslaan,1061MB,West,Kolenkitbuurt,Amsterdam,North Holland,Netherlands,nl,© OpenAddresses contributors,BSD-3-Clause License,
1053 WS Amsterdam,Da Costakade 121 A,52.36680000,4.86810000,499000,102,306,1,1981,1,appartement,31,4,0,"De Hallen, Hannie Dankbaarpassage 20, 1053 RS Amsterdam, Netherlands",52.3667658,4.868139,De Hallen,20,Hannie Dankbaarpassage,1053RS,,West,Amsterdam,North Holland,Netherlands,nl,© OpenStreetMap contributors,Open Database License,https://www.openstreetmap.org/copyright
1091 TH Amsterdam,Marcusstraat,52.35560000,4.91350000,42500,0,0,1,0,0,parkeergelegenheid,6,1,5.562369844050275,"Derde Oosterparkstraat 11E, 1091 JS Amsterdam, Netherlands",52.3556497,4.9135093,,11E,Derde Oosterparkstraat,1091JS,Oost,Oost,Amsterdam,North Holland,Netherlands,nl,© OpenStreetMap contributors,Open Database License,https://www.openstreetmap.org/copyright
1035 ST Amsterdam,Johannes J. Glasweg 89,52.41960000,4.89440000,295000,120,300,3,1991,1,woonhuis,30,5,5.227310669140413,"Jacob Honigstraat 5, 1035 XV Amsterdam, Netherlands",52.419555,4.8944223,,5,Jacob Honigstraat,1035XV,Noord,Oostzanerwerf,Amsterdam,North Holland,Netherlands,nl,© OpenStreetMap contributors,Open Database License,https://www.openstreetmap.org/copyright
1077 ZJ Amsterdam,Watteaustraat 13 I,52.34600000,4.87380000,435000,75,237,1,1951,0,appartement,31,3,8.308924963734398,"Rubensstraat 70, 1077 NA Amsterdam, Netherlands",52.3459835,4.8736807,,70,Rubensstraat,1077NA,Zuid,Zuid,Amsterdam,North Holland,Netherlands,nl,© OpenStreetMap contributors,Open Database License,https://www.openstreetmap.org/copyright
1079 LR Amsterdam,Hoendiepstraat 15 hs,52.34230000,4.90360000,400000,73,231,1,1934,1,appartement,27,3,7.649499795287331,"Zomerdijkstraat 23-3, 1079 WZ Amsterdam, Netherlands",52.3423661,4.9035688,,23-3,Zomerdijkstraat,1079WZ,Zuid,Rijnbuurt,Amsterdam,North Holland,Netherlands,nl,© OpenStreetMap contributors,Open Database License,https://www.openstreetmap.org/copyright
1094 PG Amsterdam,Insulindeweg 113 1,52.36260000,4.93600000,225000,50,171,1,1924,0,appartement,21,2,22.683970451466475,"Sumatrastraat 69, 1094 LR Amsterdam, Netherlands",52.362521,4.936308,,69,Sumatrastraat,1094LR,Oost,Indische Buurt West,Amsterdam,North Holland,Netherlands,nl,© OpenAddresses contributors,BSD-3-Clause License,
1016 RG Amsterdam,Lauriergracht 45 F,52.37090000,4.88160000,525000,86,275,2,1905,1,appartement,30,3,0,"Canal Ring Area of Amsterdam, Konijnenstraat 20, 1021 HR Amsterdam, Netherlands",52.3709412,4.8817323,Canal Ring Area of Amsterdam,20,Konijnenstraat,1021HR,,Centrum,Amsterdam,North Holland,Netherlands,nl,© OpenStreetMap contributors,Open Database License,https://www.openstreetmap.org/copyright
1069 TS Amsterdam,Langswater 223,52.35560000,4.79070000,169000,72,235,1,1960,0,appartement,28,4,25.493785079984995,"Langswater 384, 1069 EC Amsterdam, Netherlands",52.355533,4.790341,,384,Langswater,1069EC,Nieuw-West,De Punt,Amsterdam,North Holland,Netherlands,nl,© OpenAddresses contributors,BSD-3-Clause License,
1076 TS Amsterdam,Sportstraat 45 -3,52.34550000,4.86070000,275000,52,140,1,1926,0,appartement,17,3,10.92988934570428,"Stadionweg 227-1, 1076 NT Amsterdam, Netherlands",52.3454054,4.8607437,,227-1,Stadionweg,1076NT,Zuid,Zuid,Amsterdam,North Holland,Netherlands,nl,© OpenStreetMap contributors,Open Database License,https://www.openstreetmap.org/copyright
1062 GA Amsterdam,Maassluisstraat 39,52.35480000,4.83810000,495000,0,0,1,0,0,onbekend,1,1,17.33250801326791,"Koningin Wilhelminaplein 1008, 1062 KS Amsterdam, Netherlands",52.354955,4.838127,,1008,Koningin Wilhelminaplein,1062KS,Nieuw-West,Westlandgracht,Amsterdam,North Holland,Netherlands,nl,© OpenAddresses contributors,BSD-3-Clause License,
1091 LT Amsterdam,Transvaalkade 131 - I,52.35560000,4.91350000,300000,56,185,3,1928,0,appartement,37,2,5.562369844050275,"Derde Oosterparkstraat 11E, 1091 JS Amsterdam, Netherlands",52.3556497,4.9135093,,11E,Derde Oosterparkstraat,1091JS,Oost,Oost,Amsterdam,North Holland,Netherlands,nl,© OpenStreetMap contributors,Open Database License,https://www.openstreetmap.org/copyright
1012 SN Amsterdam,Hekelveld 7 B,52.37350000,4.89510000,850000,0,0,1,0,0,onbekend,1,1,21.629838672501716,"Warmoesstraat 157, 1012 JC Amsterdam, Netherlands",52.373392,4.895365,,157,Warmoesstraat,1012JC,Centrum,Oudezijde,Amsterdam,North Holland,Netherlands,nl,© OpenAddresses contributors,BSD-3-Clause License,
1060 NK Amsterdam,Akersingel 169,52.34910000,4.78350000,250000,93,269,1,1997,0,appartement,21,4,2.700931735231882,"De Alpen, 1060 PH Amsterdam, Netherlands",52.3502145,4.780774,De Alpen,,De Alpen,1060PH,,De Aker,Amsterdam,North Holland,Netherlands,nl,© OpenStreetMap contributors,Open Database License,https://www.openstreetmap.org/copyright
1051 PM Amsterdam,Waterrijkweg 386,52.38180000,4.87170000,400000,88,267,2,1997,0,appartement,21,3,4.222585482550074,"Van Beuningenstraat 194E, 1051 XZ Amsterdam, Netherlands",52.381764,4.8716802,,194E,Van Beuningenstraat,1051XZ,West,West,Amsterdam,North Holland,Netherlands,nl,© OpenStreetMap contributors,Open Database License,https://www.openstreetmap.org/copyright
1068 PM Amsterdam,Oeverpad 545,52.35920000,4.80520000,300000,109,386,1,2004,0,appartement,25,3,1.9680665618174287,"Osdorpplein 677, 1068 TC Amsterdam, Netherlands",52.3592167,4.8052096,,677,Osdorpplein,1068TC,Nieuw-West,Nieuw-West,Amsterdam,North Holland,Netherlands,nl,© OpenStreetMap contributors,Open Database License,https://www.openstreetmap.org/copyright
1011 HS Amsterdam,Groenburgwal 55 -B,52.37100000,4.90410000,899000,132,503,2,1750,0,appartement,25,4,0.9358233445245736,"Keizersbrug, 1011 KV Amsterdam, Netherlands",52.3710995,4.9040025,Keizersbrug,,Keizersbrug,1011KV,,Centrum,Amsterdam,North Holland,Netherlands,nl,© OpenStreetMap contributors,Open Database License,https://www.openstreetmap.org/copyright
1028 BM Amsterdam,Dorpsweg Ransdorp 129,52.40140000,5.00730000,875000,164,565,2,1840,1,woonhuis,33,6,500.8931529344327,"Bloemendalergouw 49B, 1028 BH Amsterdam, Netherlands",52.396972,5.008656,,49B,Bloemendalergouw,1028BH,Noord,Waterland,Amsterdam,North Holland,Netherlands,nl,© OpenAddresses contributors,BSD-3-Clause License,
1032 AX Amsterdam,Aurikelstraat 98,52.39640000,4.91260000,275000,90,310,2,1930,0,appartement,35,5,13.57212487812395,"Heggerankweg 89-1, 1032 JC Amsterdam, Netherlands",52.396469,4.912765,,89-1,Heggerankweg,1032JC,Noord,Volewijck,Amsterdam,North Holland,Netherlands,nl,© OpenAddresses contributors,BSD-3-Clause License,
1012 VG Amsterdam,Singel 93 bel,52.37350000,4.89510000,950000,185,644,2,1899,0,appartement,21,4,21.629838672501716,"Warmoesstraat 157, 1012 JC Amsterdam, Netherlands",52.373392,4.895365,,157,Warmoesstraat,1012JC,Centrum,Oudezijde,Amsterdam,North Holland,Netherlands,nl,© OpenAddresses contributors,BSD-3-Clause License,
1068 ZZ Amsterdam,Meer en Vaart 68 -A,52.35920000,4.80520000,335000,123,400,1,2009,0,appartement,29,3,1.9680665618174287,"Osdorpplein 677, 1068 TC Amsterdam, Netherlands",52.3592167,4.8052096,,677,Osdorpplein,1068TC,Nieuw-West,Nieuw-West,Amsterdam,North Holland,Netherlands,nl,© OpenStreetMap contributors,Open Database License,https://www.openstreetmap.org/copyright
1096 DT Amsterdam,STATE Amsterdam (Bouwnr. 270),52.33870000,4.91970000,395000,64,160,1,2017,0,appartement,1,2,0.9954410102966944,"Amstelvlietstraat 408, 1096 GG Amsterdam, Netherlands",52.3387075,4.919692,,408,Amstelvlietstraat,1096GG,Oost,De Omval,Amsterdam,North Holland,Netherlands,nl,© OpenStreetMap contributors,Open Database License,https://www.openstreetmap.org/copyright
1091 SL Amsterdam,Burmandwarsstraat 67,52.35560000,4.91350000,347500,87,300,2,1983,0,appartement,30,3,5.562369844050275,"Derde Oosterparkstraat 11E, 1091 JS Amsterdam, Netherlands",52.3556497,4.9135093,,11E,Derde Oosterparkstraat,1091JS,Oost,Oost,Amsterdam,North Holland,Netherlands,nl,© OpenStreetMap contributors,Open Database License,https://www.openstreetmap.org/copyright
1092 CA Amsterdam,Eikenweg 28,52.35650000,4.92280000,275000,60,155,6,1972,0,appartement,15,3,22.97756790395036,"Tugelaweg 40G, 1092 VG Amsterdam, Netherlands",52.35637,4.923063,,40G,Tugelaweg,1092VG,Oost,Transvaalbuurt,Amsterdam,North Holland,Netherlands,nl,© OpenAddresses contributors,BSD-3-Clause License,
1051 EL Amsterdam,Groen van Prinstererstraat 79 -3,52.38180000,4.87170000,475000,84,269,2,1906,0,appartement,32,3,4.222585482550074,"Van Beuningenstraat 194E, 1051 XZ Amsterdam, Netherlands",52.381764,4.8716802,,194E,Van Beuningenstraat,1051XZ,West,West,Amsterdam,North Holland,Netherlands,nl,© OpenStreetMap contributors,Open Database License,https://www.openstreetmap.org/copyright
1067 MT Amsterdam,Jan van Duivenvoordestraat 77,52.37860000,4.79870000,225000,95,250,8,2001,0,appartement,21,3,18.895369031063424,"Strackéstraat 8, 1067 KR Amsterdam, Netherlands",52.37863,4.798974,,8,Strackéstraat,1067KR,Nieuw-West,Geuzenveld,Amsterdam,North Holland,Netherlands,nl,© OpenAddresses contributors,BSD-3-Clause License,
1051 VE Amsterdam,Van der Hoopstraat 121 H,52.38180000,4.87170000,259000,42,174,1,1906,1,appartement,26,2,4.222585482550074,"Van Beuningenstraat 194E, 1051 XZ Amsterdam, Netherlands",52.381764,4.8716802,,194E,Van Beuningenstraat,1051XZ,West,West,Amsterdam,North Holland,Netherlands,nl,© OpenStreetMap contributors,Open Database License,https://www.openstreetmap.org/copyright
1060 ML Amsterdam,Sporadenlaan 11,52.34910000,4.78350000,325000,128,365,3,2003,0,appartement,23,4,2.700931735231882,"De Alpen, 1060 PH Amsterdam, Netherlands",52.3502145,4.780774,De Alpen,,De Alpen,1060PH,,De Aker,Amsterdam,North Holland,Netherlands,nl,© OpenStreetMap contributors,Open Database License,https://www.openstreetmap.org/copyright
1054 ZW Amsterdam,Jacob van Lennepkade 307 4,52.36170000,4.86690000,425000,58,135,1,1920,1,appartement,15,3,12.085615741751521,"Brederodestraat 15-2, 1054 MP Amsterdam, Netherlands",52.361808,4.86692,,15-2,Brederodestraat,1054MP,West,Helmersbuurt,Amsterdam,North Holland,Netherlands,nl,© OpenAddresses contributors,BSD-3-Clause License,
1079 ZW Amsterdam,Bernissestraat 8 B,52.34230000,4.90360000,275000,50,153,1,2008,0,appartement,21,2,7.649499795287331,"Zomerdijkstraat 23-3, 1079 WZ Amsterdam, Netherlands",52.3423661,4.9035688,,23-3,Zomerdijkstraat,1079WZ,Zuid,Rijnbuurt,Amsterdam,North Holland,Netherlands,nl,© OpenStreetMap contributors,Open Database License,https://www.openstreetmap.org/copyright
1092 VV Amsterdam,Retiefstraat 13 III,52.35650000,4.92280000,425000,100,300,2,1906,0,appartement,41,4,22.97756790395036,"Tugelaweg 40G, 1092 VG Amsterdam, Netherlands",52.35637,4.923063,,40G,Tugelaweg,1092VG,Oost,Transvaalbuurt,Amsterdam,North Holland,Netherlands,nl,© OpenAddresses contributors,BSD-3-Clause License,
1025 AN Amsterdam,Elpermeer 198,52.39900000,4.93610000,135000,28,70,1,1960,0,appartement,19,1,12.750199922949465,"Buikslotermeerplein 124, 1025 EX Amsterdam, Netherlands",52.3989423,4.9362624,,124,Buikslotermeerplein,1025EX,Noord,Noord,Amsterdam,North Holland,Netherlands,nl,© OpenStreetMap contributors,Open Database License,https://www.openstreetmap.org/copyright
1054 ZC Amsterdam,Pieter Langendijkstraat 46 -II,52.36170000,4.86690000,375000,57,205,1,1910,0,appartement,32,3,12.085615741751521,"Brederodestraat 15-2, 1054 MP Amsterdam, Netherlands",52.361808,4.86692,,15-2,Brederodestraat,1054MP,West,Helmersbuurt,Amsterdam,North Holland,Netherlands,nl,© OpenAddresses contributors,BSD-3-Clause License,
1016 CR Amsterdam,Leidsegracht 78,52.37090000,4.88160000,3000000,440,1300,1,1906,1,woonhuis,52,12,0,"Canal Ring Area of Amsterdam, Konijnenstraat 20, 1021 HR Amsterdam, Netherlands",52.3709412,4.8817323,Canal Ring Area of Amsterdam,20,Konijnenstraat,1021HR,,Centrum,Amsterdam,North Holland,Netherlands,nl,© OpenStreetMap contributors,Open Database License,https://www.openstreetmap.org/copyright
1012 AK Amsterdam,Sint Olofssteeg 6 B,52.37350000,4.89510000,235000,37,114,1,1906,0,appartement,14,2,21.629838672501716,"Warmoesstraat 157, 1012 JC Amsterdam, Netherlands",52.373392,4.895365,,157,Warmoesstraat,1012JC,Centrum,Oudezijde,Amsterdam,North Holland,Netherlands,nl,© OpenAddresses contributors,BSD-3-Clause License,
1097 AC Amsterdam,Ringdijk 24 I,52.34650000,4.93010000,375000,66,228,1,1908,0,appartement,25,3,2.796740279342611,"Darwinplantsoen 6, 1097 EX Amsterdam, Netherlands",52.3465023,4.930059,,6,Darwinplantsoen,1097EX,Oost,Oost,Amsterdam,North Holland,Netherlands,nl,© OpenStreetMap contributors,Open Database License,https://www.openstreetmap.org/copyright
1058 SP Amsterdam,Vogelenzangstraat 51 1,52.35790000,4.85100000,315000,56,182,4,1931,0,appartement,22,4,3.014316145532016,"Surinameplein, 1058 Amsterdam, Netherlands",52.357885,4.8518022,Surinameplein,,Surinameplein,1058,,,Amsterdam,North Holland,Netherlands,nl,© OpenStreetMap contributors,Open Database License,https://www.openstreetmap.org/copyright
1103 SE Amsterdam,'s-Gravendijkdreef 158,52.32310000,4.97220000,299000,110,281,1,2007,0,woonhuis,1,5,12.548452217043597,"Harriet Freezerstraat 113, 1103 JP Amsterdam, Netherlands",52.323119,4.972382,,113,Harriet Freezerstraat,1103JP,Zuidoost,Bijlmer Oost,Amsterdam,North Holland,Netherlands,nl,© OpenAddresses contributors,BSD-3-Clause License,
1076 KS Amsterdam,Argonautenstraat 48 II,52.34550000,4.86070000,300000,62,210,1,1906,0,appartement,11,3,10.92988934570428,"Stadionweg 227-1, 1076 NT Amsterdam, Netherlands",52.3454054,4.8607437,,227-1,Stadionweg,1076NT,Zuid,Zuid,Amsterdam,North Holland,Netherlands,nl,© OpenStreetMap contributors,Open Database License,https://www.openstreetmap.org/copyright
1102 SV Amsterdam,Anna Blamansingel 130,52.31660000,4.95170000,165000,49,130,8,2006,0,appartement,18,2,49.79663637578256,"Raoul Wallenberghofje 3, 1102 AH Amsterdam, Netherlands",52.316997,4.952039,,3,Raoul Wallenberghofje,1102AH,Zuidoost,Bijlmer Centrum,Amsterdam,North Holland,Netherlands,nl,© OpenAddresses contributors,BSD-3-Clause License,
1063 TX Amsterdam,Dirk Bonsstraat 2 3,52.38140000,4.82590000,189000,66,237,1,1953,0,appartement,17,3,2.5954411684806953,"Van Gilsestraat 13-H, 1063 VS Amsterdam, Netherlands",52.3814121,4.8259327,,13-H,Van Gilsestraat,1063VS,Nieuw-West,Slotermeer,Amsterdam,North Holland,Netherlands,nl,© OpenStreetMap contributors,Open Database License,https://www.openstreetmap.org/copyright
1015 JT Amsterdam,Goudsbloemstraat 122 HS,52.37840000,4.88360000,349000,68,200,1,2002,1,appartement,19,2,11.715735159463115,"Westerstraat 105-1, 1015 LX Amsterdam, Netherlands",52.3783013,4.8836604,,105-1,Westerstraat,1015LX,Centrum,Centrum,Amsterdam,North Holland,Netherlands,nl,© OpenStreetMap contributors,Open Database License,https://www.openstreetmap.org/copyright
1103 GH Amsterdam,Grubbehoeve 28,52.32310000,4.97220000,169500,77,248,1,2006,0,appartement,13,3,12.548452217043597,"Harriet Freezerstraat 113, 1103 JP Amsterdam, Netherlands",52.323119,4.972382,,113,Harriet Freezerstraat,1103JP,Zuidoost,Bijlmer Oost,Amsterdam,North Holland,Netherlands,nl,© OpenAddresses contributors,BSD-3-Clause License,
1077 TD Amsterdam,Stadionweg 208,52.34600000,4.87380000,1250000,163,456,1,1906,1,appartement,35,5,8.308924963734398,"Rubensstraat 70, 1077 NA Amsterdam, Netherlands",52.3459835,4.8736807,,70,Rubensstraat,1077NA,Zuid,Zuid,Amsterdam,North Holland,Netherlands,nl,© OpenStreetMap contributors,Open Database License,https://www.openstreetmap.org/copyright
1051 TT Amsterdam,Joan Melchior Kemperstraat 66 III,52.38180000,4.87170000,550000,97,303,2,1910,0,appartement,21,5,4.222585482550074,"Van Beuningenstraat 194E, 1051 XZ Amsterdam, Netherlands",52.381764,4.8716802,,194E,Van Beuningenstraat,1051XZ,West,West,Amsterdam,North Holland,Netherlands,nl,© OpenStreetMap contributors,Open Database License,https://www.openstreetmap.org/copyright
1081 JR Amsterdam,Amstelveenseweg 982 c,52.32780000,4.86200000,500000,102,335,2,2006,1,appartement,45,3,45.897876912526065,"Van Der Boechorststraat 40, 1081 BV Amsterdam, Netherlands",52.327514,4.861513,,40,Van Der Boechorststraat,1081BV,Zuid,Buitenveldert-West,Amsterdam,North Holland,Netherlands,nl,© OpenAddresses contributors,BSD-3-Clause License,
1062 DA Amsterdam,Derkinderenstraat 49 L,52.35480000,4.83810000,250000,83,260,1,1992,0,appartement,29,3,17.33250801326791,"Koningin Wilhelminaplein 1008, 1062 KS Amsterdam, Netherlands",52.354955,4.838127,,1008,Koningin Wilhelminaplein,1062KS,Nieuw-West,Westlandgracht,Amsterdam,North Holland,Netherlands,nl,© OpenAddresses contributors,BSD-3-Clause License,
1094 AV Amsterdam,Lampongstraat 18 I hg,52.36260000,4.93600000,240000,55,165,4,1914,0,appartement,25,2,22.683970451466475,"Sumatrastraat 69, 1094 LR Amsterdam, Netherlands",52.362521,4.936308,,69,Sumatrastraat,1094LR,Oost,Indische Buurt West,Amsterdam,North Holland,Netherlands,nl,© OpenAddresses contributors,BSD-3-Clause License,
1098 BD Amsterdam,Linnaeuskade 7 15,52.35290000,4.94220000,40000,0,0,1,0,0,parkeergelegenheid,6,1,5.359207257903827,"Voltaplein 42, 1098 NS Amsterdam, Netherlands",52.3529478,4.9421899,,42,Voltaplein,1098NS,Oost,Oost,Amsterdam,North Holland,Netherlands,nl,© OpenStreetMap contributors,Open Database License,https://www.openstreetmap.org/copyright
1091 RT Amsterdam,Swammerdamstraat 6 III/IV,52.35560000,4.91350000,675000,131,385,2,1882,0,appartement,38,4,5.562369844050275,"Derde Oosterparkstraat 11E, 1091 JS Amsterdam, Netherlands",52.3556497,4.9135093,,11E,Derde Oosterparkstraat,1091JS,Oost,Oost,Amsterdam,North Holland,Netherlands,nl,© OpenStreetMap contributors,Open Database License,https://www.openstreetmap.org/copyright
1055 MD Amsterdam,Admiraal De Ruijterweg 401 -III,52.38020000,4.85240000,289000,70,184,1,1906,0,appartement,25,3,1.7680981373911713,"Hertspieghelweg 8-3, 1055 KL Amsterdam, Netherlands",52.380187,4.852385,,8-3,Hertspieghelweg,1055KL,West,Landlust,Amsterdam,North Holland,Netherlands,nl,© OpenAddresses contributors,BSD-3-Clause License,
1060 SH Amsterdam,Dinarpromenade 14,52.34910000,4.78350000,225000,65,214,3,1998,1,appartement,21,2,2.700931735231882,"De Alpen, 1060 PH Amsterdam, Netherlands",52.3502145,4.780774,De Alpen,,De Alpen,1060PH,,De Aker,Amsterdam,North Holland,Netherlands,nl,© OpenStreetMap contributors,Open Database License,https://www.openstreetmap.org/copyright
1063 ML Amsterdam,Willem Kraanstraat 80,52.38140000,4.82590000,155000,42,215,4,1957,0,appartement,17,3,2.5954411684806953,"Van Gilsestraat 13-H, 1063 VS Amsterdam, Netherlands",52.3814121,4.8259327,,13-H,Van Gilsestraat,1063VS,Nieuw-West,Slotermeer,Amsterdam,North Holland,Netherlands,nl,© OpenStreetMap contributors,Open Database License,https://www.openstreetmap.org/copyright
1054 KJ Amsterdam,Overtoom 502 hs,52.36170000,4.86690000,775000,118,322,1,1911,1,appartement,35,5,12.085615741751521,"Brederodestraat 15-2, 1054 MP Amsterdam, Netherlands",52.361808,4.86692,,15-2,Brederodestraat,1054MP,West,Helmersbuurt,Amsterdam,North Holland,Netherlands,nl,© OpenAddresses contributors,BSD-3-Clause License,
1098 SE Amsterdam,Lord Kelvinstraat 13 2,52.35290000,4.94220000,260000,67,160,1,1955,0,appartement,19,3,5.359207257903827,"Voltaplein 42, 1098 NS Amsterdam, Netherlands",52.3529478,4.9421899,,42,Voltaplein,1098NS,Oost,Oost,Amsterdam,North Holland,Netherlands,nl,© OpenStreetMap contributors,Open Database License,https://www.openstreetmap.org/copyright
1082 MS Amsterdam,Gustav Mahlerplein 147,52.33110000,4.87420000,845000,157,560,1,2010,0,appartement,53,4,14.773310690004186,"Doddendaal 197, 1082 XT Amsterdam, Netherlands",52.3309672,4.8742065,,197,Doddendaal,1082XT,Zuid,Buitenveldert,Amsterdam,North Holland,Netherlands,nl,© OpenStreetMap contributors,Open Database License,https://www.openstreetmap.org/copyright
1094 HL Amsterdam,Javastraat 76 IV,52.36260000,4.93600000,300000,59,145,4,1903,0,appartement,23,2,22.683970451466475,"Sumatrastraat 69, 1094 LR Amsterdam, Netherlands",52.362521,4.936308,,69,Sumatrastraat,1094LR,Oost,Indische Buurt West,Amsterdam,North Holland,Netherlands,nl,© OpenAddresses contributors,BSD-3-Clause License,
1066 SC Amsterdam,Belgiëplein 100,52.34600000,4.81630000,250000,80,232,1,1994,0,appartement,16,3,2.7080196663115323,"Antwerpenbaan, Laan van Vlaanderen, 1066 JL Amsterdam, Netherlands",52.3460233,4.8162884,Antwerpenbaan,,Laan van Vlaanderen,1066JL,Nieuw-West,Sloterpolder,Amsterdam,North Holland,Netherlands,nl,© OpenStreetMap contributors,Open Database License,https://www.openstreetmap.org/copyright
1095 CL Amsterdam,Javastraat 164 -IV,52.36660000,4.95200000,215000,38,80,1,1925,0,appartement,25,2,6.439024133897987,"Zeeburgerdijk 585, 1095 AE Amsterdam, Netherlands",52.36658,4.952089,,585,Zeeburgerdijk,1095AE,Oost,Indische Buurt Oost,Amsterdam,North Holland,Netherlands,nl,© OpenAddresses contributors,BSD-3-Clause License,
1012 EW Amsterdam,Oudezijds Voorburgwal 187 C,52.37350000,4.89510000,450000,87,220,4,1906,0,appartement,18,2,21.629838672501716,"Warmoesstraat 157, 1012 JC Amsterdam, Netherlands",52.373392,4.895365,,157,Warmoesstraat,1012JC,Centrum,Oudezijde,Amsterdam,North Holland,Netherlands,nl,© OpenAddresses contributors,BSD-3-Clause License,
1067 TC Amsterdam,Osdorperweg 824 D,52.37860000,4.79870000,449000,163,473,3,1998,1,woonhuis,25,7,18.895369031063424,"Strackéstraat 8, 1067 KR Amsterdam, Netherlands",52.37863,4.798974,,8,Strackéstraat,1067KR,Nieuw-West,Geuzenveld,Amsterdam,North Holland,Netherlands,nl,© OpenAddresses contributors,BSD-3-Clause License,
1091 TM Amsterdam,Overamstelstraat 63,52.35560000,4.91350000,475000,97,293,1,1991,0,appartement,30,4,5.562369844050275,"Derde Oosterparkstraat 11E, 1091 JS Amsterdam, Netherlands",52.3556497,4.9135093,,11E,Derde Oosterparkstraat,1091JS,Oost,Oost,Amsterdam,North Holland,Netherlands,nl,© OpenStreetMap contributors,Open Database License,https://www.openstreetmap.org/copyright
1060 RE Amsterdam,Ladogameerhof 154,52.34910000,4.78350000,239000,88,164,1,1998,0,appartement,1,4,2.700931735231882,"De Alpen, 1060 PH Amsterdam, Netherlands",52.3502145,4.780774,De Alpen,,De Alpen,1060PH,,De Aker,Amsterdam,North Holland,Netherlands,nl,© OpenStreetMap contributors,Open Database License,https://www.openstreetmap.org/copyright
1098 WS Amsterdam,Praterlaan 86,52.35290000,4.94220000,350000,96,278,1,2001,0,appartement,19,3,5.359207257903827,"Voltaplein 42, 1098 NS Amsterdam, Netherlands",52.3529478,4.9421899,,42,Voltaplein,1098NS,Oost,Oost,Amsterdam,North Holland,Netherlands,nl,© OpenStreetMap contributors,Open Database License,https://www.openstreetmap.org/copyright
1032 LL Amsterdam,Ridderspoorweg 259,52.39640000,4.91260000,250000,45,115,1,2016,0,appartement,21,1,13.57212487812395,"Heggerankweg 89-1, 1032 JC Amsterdam, Netherlands",52.396469,4.912765,,89-1,Heggerankweg,1032JC,Noord,Volewijck,Amsterdam,North Holland,Netherlands,nl,© OpenAddresses contributors,BSD-3-Clause License,
1064 CT Amsterdam,Burgemeester Hogguerstraat 473,52.37420000,4.82180000,160000,45,150,1,1965,0,appartement,23,2,6.234539033066015,"A.J. Krophollerstraat 6, 1064 DB Amsterdam, Netherlands",52.3742289,4.8217213,,6,A.J. Krophollerstraat,1064DB,,Nieuw-West,Amsterdam,North Holland,Netherlands,nl,© OpenStreetMap contributors,Open Database License,https://www.openstreetmap.org/copyright
1055 CB Amsterdam,Esmoreitstraat 41 huis,52.38020000,4.85240000,269000,52,150,1,1945,1,appartement,21,2,1.7680981373911713,"Hertspieghelweg 8-3, 1055 KL Amsterdam, Netherlands",52.380187,4.852385,,8-3,Hertspieghelweg,1055KL,West,Landlust,Amsterdam,North Holland,Netherlands,nl,© OpenAddresses contributors,BSD-3-Clause License,
1102 AX Amsterdam,Raoul Wallenbergstraat 71,52.31660000,4.95170000,239000,91,255,1,2010,0,appartement,20,3,49.79663637578256,"Raoul Wallenberghofje 3, 1102 AH Amsterdam, Netherlands",52.316997,4.952039,,3,Raoul Wallenberghofje,1102AH,Zuidoost,Bijlmer Centrum,Amsterdam,North Holland,Netherlands,nl,© OpenAddresses contributors,BSD-3-Clause License,
1058 HV Amsterdam,Andreas Schelfhoutstraat 30,52.35790000,4.85100000,239500,0,0,1,0,0,onbekend,1,1,3.014316145532016,"Surinameplein, 1058 Amsterdam, Netherlands",52.357885,4.8518022,Surinameplein,,Surinameplein,1058,,,Amsterdam,North Holland,Netherlands,nl,© OpenStreetMap contributors,Open Database License,https://www.openstreetmap.org/copyright
1052 GJ Amsterdam,Fagelstraat 100 III,52.37700000,4.87400000,675000,120,373,2,1905,0,appartement,48,4,2.189558787067854,"Frederik Hendrikstraat 48-1, 1052 HW Amsterdam, Netherlands",52.3770196,4.8739969,,48-1,Frederik Hendrikstraat,1052HW,West,West,Amsterdam,North Holland,Netherlands,nl,© OpenStreetMap contributors,Open Database License,https://www.openstreetmap.org/copyright
1068 SL Amsterdam,Wildeman 65,52.35920000,4.80520000,250000,94,270,1,2000,0,appartement,20,4,1.9680665618174287,"Osdorpplein 677, 1068 TC Amsterdam, Netherlands",52.3592167,4.8052096,,677,Osdorpplein,1068TC,Nieuw-West,Nieuw-West,Amsterdam,North Holland,Netherlands,nl,© OpenStreetMap contributors,Open Database License,https://www.openstreetmap.org/copyright
1019 PE Amsterdam,Bogortuin 1,52.37330000,4.93910000,40000,0,0,1,0,0,onbekend,1,1,5.763955155170856,"C.J.K. van Aalststraat 44, 1019 JZ Amsterdam, Netherlands",52.3732484,4.9391081,,44,C.J.K. van Aalststraat,1019JZ,,Eastern Docklands,Amsterdam,North Holland,Netherlands,nl,© OpenStreetMap contributors,Open Database License,https://www.openstreetmap.org/copyright
1067 TJ Amsterdam,Lutkemeerweg 73,52.37860000,4.79870000,795000,125,350,2,1923,1,woonhuis,49,5,18.895369031063424,"Strackéstraat 8, 1067 KR Amsterdam, Netherlands",52.37863,4.798974,,8,Strackéstraat,1067KR,Nieuw-West,Geuzenveld,Amsterdam,North Holland,Netherlands,nl,© OpenAddresses contributors,BSD-3-Clause License,
1019 HT Amsterdam,Zeeburgerkade 810,52.37330000,4.93910000,375000,76,247,2,1990,0,appartement,35,3,5.763955155170856,"C.J.K. van Aalststraat 44, 1019 JZ Amsterdam, Netherlands",52.3732484,4.9391081,,44,C.J.K. van Aalststraat,1019JZ,,Eastern Docklands,Amsterdam,North Holland,Netherlands,nl,© OpenStreetMap contributors,Open Database License,https://www.openstreetmap.org/copyright
1069 WJ Amsterdam,Ingelandenweg 174,52.35560000,4.79070000,250000,95,285,2,1965,1,woonhuis,25,5,25.493785079984995,"Langswater 384, 1069 EC Amsterdam, Netherlands",52.355533,4.790341,,384,Langswater,1069EC,Nieuw-West,De Punt,Amsterdam,North Holland,Netherlands,nl,© OpenAddresses contributors,BSD-3-Clause License,
1058 DT Amsterdam,Postjeskade 193 III,52.35790000,4.85100000,450000,88,277,3,1935,1,appartement,24,5,3.014316145532016,"Surinameplein, 1058 Amsterdam, Netherlands",52.357885,4.8518022,Surinameplein,,Surinameplein,1058,,,Amsterdam,North Holland,Netherlands,nl,© OpenStreetMap contributors,Open Database License,https://www.openstreetmap.org/copyright
1073 BV Amsterdam,Govert Flinckstraat 203 hs,52.35320000,4.89820000,799000,118,443,2,1906,0,appartement,24,4,2.2512175683180513,"Van Ostadestraat 209K, 1073 TN Amsterdam, Netherlands",52.3532055,4.8981681,,209K,Van Ostadestraat,1073TN,Zuid,Zuid,Amsterdam,North Holland,Netherlands,nl,© OpenStreetMap contributors,Open Database License,https://www.openstreetmap.org/copyright
1066 WK Amsterdam,Knokkestraat 25,52.34600000,4.81630000,375000,120,362,2,1996,1,woonhuis,27,4,2.7080196663115323,"Antwerpenbaan, Laan van Vlaanderen, 1066 JL Amsterdam, Netherlands",52.3460233,4.8162884,Antwerpenbaan,,Laan van Vlaanderen,1066JL,Nieuw-West,Sloterpolder,Amsterdam,North Holland,Netherlands,nl,© OpenStreetMap contributors,Open Database License,https://www.openstreetmap.org/copyright
1071 EH Amsterdam,Pieter de Hoochstraat 74 IV+Dakt,52.35520000,4.87890000,750000,118,344,2,1914,0,appartement,39,4,19.593762206140674,"Wouwermanstraat 26-H, 1071 LZ Amsterdam, Netherlands",52.3550303,4.8789777,,26-H,Wouwermanstraat,1071LZ,Zuid,Zuid,Amsterdam,North Holland,Netherlands,nl,© OpenStreetMap contributors,Open Database License,https://www.openstreetmap.org/copyright
1063 AJ Amsterdam,Harry Koningsbergerstraat 228,52.38140000,4.82590000,129000,30,90,1,1958,0,appartement,14,1,2.5954411684806953,"Van Gilsestraat 13-H, 1063 VS Amsterdam, Netherlands",52.3814121,4.8259327,,13-H,Van Gilsestraat,1063VS,Nieuw-West,Slotermeer,Amsterdam,North Holland,Netherlands,nl,© OpenStreetMap contributors,Open Database License,https://www.openstreetmap.org/copyright
1056 XH Amsterdam,Jan Haringstraat 8 III,52.37320000,4.85600000,244500,51,170,1,1939,0,appartement,29,3,25.674998739078635,"Admiralengracht 228-2, 1056 TK Amsterdam, Netherlands",52.37323,4.856375,,228-2,Admiralengracht,1056TK,West,De Krommert,Amsterdam,North Holland,Netherlands,nl,© OpenAddresses contributors,BSD-3-Clause License,
1059 AA Amsterdam,Aalsmeerweg 23 II,52.34880000,4.84680000,299000,54,150,1,1906,0,appartement,14,3,7.424910888743452,"Sassenheimstraat 80-1, 1059 BM Amsterdam, Netherlands",52.3488658,4.8468186,,80-1,Sassenheimstraat,1059BM,Zuid,Hoofddorppleinbuurt,Amsterdam,North Holland,Netherlands,nl,© OpenStreetMap contributors,Open Database License,https://www.openstreetmap.org/copyright
1078 EJ Amsterdam,Churchill-laan 62 2,52.34640000,4.89770000,350000,63,210,1,1925,0,appartement,12,3,11.344645539447924,"Churchill-laan 75D, 1078 DJ Amsterdam, Netherlands",52.3464982,4.8976547,,75D,Churchill-laan,1078DJ,Zuid,Zuid,Amsterdam,North Holland,Netherlands,nl,© OpenStreetMap contributors,Open Database License,https://www.openstreetmap.org/copyright
1093 DC Amsterdam,Von Zesenstraat 169,52.36180000,4.92800000,400000,95,240,1,1988,0,appartement,15,4,0,"Dappermarkt, Tweede van Swindenstraat, 1093 GS Amsterdam, Netherlands",52.363045150000005,4.92724532349044,Dappermarkt,,Tweede van Swindenstraat,1093GS,,Oost,Amsterdam,North Holland,Netherlands,nl,© OpenStreetMap contributors,Open Database License,https://www.openstreetmap.org/copyright
1071 HN Amsterdam,Willemsparkweg 116,52.35520000,4.87890000,2480000,320,1265,4,1906,1,woonhuis,40,8,19.593762206140674,"Wouwermanstraat 26-H, 1071 LZ Amsterdam, Netherlands",52.3550303,4.8789777,,26-H,Wouwermanstraat,1071LZ,Zuid,Zuid,Amsterdam,North Holland,Netherlands,nl,© OpenStreetMap contributors,Open Database License,https://www.openstreetmap.org/copyright
1066 GG Amsterdam,Duke Ellingtonstraat,52.34600000,4.81630000,16000,0,0,1,0,0,parkeergelegenheid,1,1,2.7080196663115323,"Antwerpenbaan, Laan van Vlaanderen, 1066 JL Amsterdam, Netherlands",52.3460233,4.8162884,Antwerpenbaan,,Laan van Vlaanderen,1066JL,Nieuw-West,Sloterpolder,Amsterdam,North Holland,Netherlands,nl,© OpenStreetMap contributors,Open Database License,https://www.openstreetmap.org/copyright
1072 VJ Amsterdam,Gerard Doustraat 23 Boven,52.35350000,4.89020000,699000,118,370,5,1906,0,appartement,26,4,4.566243169923167,"Eerste Jan van der Heijdenstraat 109-HV, 1072 TN Amsterdam, Netherlands",52.3534607,4.8901805,,109-HV,Eerste Jan van der Heijdenstraat,1072TN,,Zuid,Amsterdam,North Holland,Netherlands,nl,© OpenStreetMap contributors,Open Database License,https://www.openstreetmap.org/copyright
1046 Amsterdam,Limmerick Garagebox/Opslag,52.39150000,4.78470000,29500,0,0,1,0,0,parkeergelegenheid,7,1,64.44927235178022,"Portsmuiden 4, 1046 AJ Amsterdam, Netherlands",52.390933,4.784503,,4,Portsmuiden,1046AJ,Nieuw-West,Bedrijventerrein Sloterdijk,Amsterdam,North Holland,Netherlands,nl,© OpenAddresses contributors,BSD-3-Clause License,
1056 PV Amsterdam,Orteliusstraat 362 HS,52.37320000,4.85600000,425000,78,283,1,1931,1,appartement,32,3,25.674998739078635,"Admiralengracht 228-2, 1056 TK Amsterdam, Netherlands",52.37323,4.856375,,228-2,Admiralengracht,1056TK,West,De Krommert,Amsterdam,North Holland,Netherlands,nl,© OpenAddresses contributors,BSD-3-Clause License,
1069 MN Amsterdam,Zwarte Pad 10,52.35560000,4.79070000,498000,0,0,1,0,0,onbekend,1,1,25.493785079984995,"Langswater 384, 1069 EC Amsterdam, Netherlands",52.355533,4.790341,,384,Langswater,1069EC,Nieuw-West,De Punt,Amsterdam,North Holland,Netherlands,nl,© OpenAddresses contributors,BSD-3-Clause License,
1093 XA Amsterdam,Tweede van Swindenstraat 178 -G,52.36180000,4.92800000,450000,90,280,1,2014,0,appartement,38,4,0,"Dappermarkt, Tweede van Swindenstraat, 1093 GS Amsterdam, Netherlands",52.363045150000005,4.92724532349044,Dappermarkt,,Tweede van Swindenstraat,1093GS,,Oost,Amsterdam,North Holland,Netherlands,nl,© OpenStreetMap contributors,Open Database License,https://www.openstreetmap.org/copyright
1055 AR Amsterdam,Griseldestraat 9 hs,52.38020000,4.85240000,275000,68,228,2,1940,0,appartement,38,4,1.7680981373911713,"Hertspieghelweg 8-3, 1055 KL Amsterdam, Netherlands",52.380187,4.852385,,8-3,Hertspieghelweg,1055KL,West,Landlust,Amsterdam,North Holland,Netherlands,nl,© OpenAddresses contributors,BSD-3-Clause License,
1055 BN Amsterdam,Sanderijnstraat 17 -II,52.38020000,4.85240000,250000,57,166,1,1940,0,appartement,30,4,1.7680981373911713,"Hertspieghelweg 8-3, 1055 KL Amsterdam, Netherlands",52.380187,4.852385,,8-3,Hertspieghelweg,1055KL,West,Landlust,Amsterdam,North Holland,Netherlands,nl,© OpenAddresses contributors,BSD-3-Clause License,
1103 TB Amsterdam,Bijlmerdreef 867,52.32310000,4.97220000,199000,100,280,2,2000,1,appartement,15,5,12.548452217043597,"Harriet Freezerstraat 113, 1103 JP Amsterdam, Netherlands",52.323119,4.972382,,113,Harriet Freezerstraat,1103JP,Zuidoost,Bijlmer Oost,Amsterdam,North Holland,Netherlands,nl,© OpenAddresses contributors,BSD-3-Clause License,
1053 LZ Amsterdam,Nassaukade 354,52.36680000,4.86810000,450000,65,275,4,1887,0,appartement,40,4,0,"De Hallen, Hannie Dankbaarpassage 20, 1053 RS Amsterdam, Netherlands",52.3667658,4.868139,De Hallen,20,Hannie Dankbaarpassage,1053RS,,West,Amsterdam,North Holland,Netherlands,nl,© OpenStreetMap contributors,Open Database License,https://www.openstreetmap.org/copyright
1017 ZL Amsterdam,Huidekoperstraat 9 hs,52.36300000,4.89240000,325000,53,212,1,1906,1,appartement,26,2,0.6133852941470841,"Kerkstraat 245L, 1017 GW Amsterdam, Netherlands",52.3629963,4.8923933,,245L,Kerkstraat,1017GW,Centrum,Centrum,Amsterdam,North Holland,Netherlands,nl,© OpenStreetMap contributors,Open Database License,https://www.openstreetmap.org/copyright
1066 TC Amsterdam,Kortrijk 54,52.34600000,4.81630000,695000,163,597,3,1995,1,woonhuis,49,6,2.7080196663115323,"Antwerpenbaan, Laan van Vlaanderen, 1066 JL Amsterdam, Netherlands",52.3460233,4.8162884,Antwerpenbaan,,Laan van Vlaanderen,1066JL,Nieuw-West,Sloterpolder,Amsterdam,North Holland,Netherlands,nl,© OpenStreetMap contributors,Open Database License,https://www.openstreetmap.org/copyright
1103 AS Amsterdam,Empangeni 39,52.32310000,4.97220000,285000,131,356,3,2006,1,woonhuis,20,5,12.548452217043597,"Harriet Freezerstraat 113, 1103 JP Amsterdam, Netherlands",52.323119,4.972382,,113,Harriet Freezerstraat,1103JP,Zuidoost,Bijlmer Oost,Amsterdam,North Holland,Netherlands,nl,© OpenAddresses contributors,BSD-3-Clause License,
1061 DJ Amsterdam,Bos en Lommerweg 280,52.37360000,4.83950000,365000,96,281,1,2011,0,appartement,28,4,19.250318965195206,"Rinus Michelslaan 14A, 1061 MB Amsterdam, Netherlands",52.373438,4.8394,,14A,Rinus Michelslaan,1061MB,West,Kolenkitbuurt,Amsterdam,North Holland,Netherlands,nl,© OpenAddresses contributors,BSD-3-Clause License,
1018 WT Amsterdam,Nieuwe Achtergracht 104 G,52.36760000,4.91840000,549000,88,302,5,1887,0,appartement,26,3,4.080374033250982,"Entrepotdoksluis 4, 1018 AW Amsterdam, Netherlands",52.367578,4.9184481,,4,Entrepotdoksluis,1018AW,Centrum,Centrum,Amsterdam,North Holland,Netherlands,nl,© OpenStreetMap contributors,Open Database License,https://www.openstreetmap.org/copyright
1108 CW Amsterdam,Leusdenhof 77,52.30820000,4.98070000,179500,69,185,1,1976,0,appartement,15,3,60.948473119679264,"Openbare Daltonschool Nellestein, Leksmondplein 31, 1108 EL Amsterdam, Netherlands",52.308666,4.980228,Openbare Daltonschool Nellestein,31,Leksmondplein,1108EL,Zuidoost,Nellestein,Amsterdam,North Holland,Netherlands,nl,© OpenStreetMap contributors,Open Database License,https://www.openstreetmap.org/copyright
1013 KH Amsterdam,Haarlemmerdijk 169 boven,52.38770000,4.88390000,565000,85,265,2,1906,0,appartement,52,4,22.600580536478933,"Houtmankade 58A, 1013 MZ Amsterdam, Netherlands",52.387801,4.883611,,58A,Houtmankade,1013MZ,West,Spaarndammer- en Zeeheldenbuurt,Amsterdam,North Holland,Netherlands,nl,© OpenAddresses contributors,BSD-3-Clause License,
1054 EV Amsterdam,Roemer Visscherstraat 9,52.36170000,4.86690000,2500000,350,1372,4,1892,1,woonhuis,34,10,12.085615741751521,"Brederodestraat 15-2, 1054 MP Amsterdam, Netherlands",52.361808,4.86692,,15-2,Brederodestraat,1054MP,West,Helmersbuurt,Amsterdam,North Holland,Netherlands,nl,© OpenAddresses contributors,BSD-3-Clause License,
1095 MT Amsterdam,Lien Gisolfpad 1,52.36660000,4.95200000,225000,50,175,1,2016,1,appartement,27,2,6.439024133897987,"Zeeburgerdijk 585, 1095 AE Amsterdam, Netherlands",52.36658,4.952089,,585,Zeeburgerdijk,1095AE,Oost,Indische Buurt Oost,Amsterdam,North Holland,Netherlands,nl,© OpenAddresses contributors,BSD-3-Clause License,
1053 KB Amsterdam,Jacob van Lennepstraat 238 B,52.36680000,4.86810000,349000,62,148,1,1904,0,appartement,25,2,0,"De Hallen, Hannie Dankbaarpassage 20, 1053 RS Amsterdam, Netherlands",52.3667658,4.868139,De Hallen,20,Hannie Dankbaarpassage,1053RS,,West,Amsterdam,North Holland,Netherlands,nl,© OpenStreetMap contributors,Open Database License,https://www.openstreetmap.org/copyright
1098 LH Amsterdam,Helmholtzstraat 87 II,52.35290000,4.94220000,295000,70,210,3,1945,0,appartement,23,3,5.359207257903827,"Voltaplein 42, 1098 NS Amsterdam, Netherlands",52.3529478,4.9421899,,42,Voltaplein,1098NS,Oost,Oost,Amsterdam,North Holland,Netherlands,nl,© OpenStreetMap contributors,Open Database License,https://www.openstreetmap.org/copyright
1077 WK Amsterdam,Herman Heijermansweg 43,52.34600000,4.87380000,4850000,365,1200,3,2006,1,woonhuis,15,10,8.308924963734398,"Rubensstraat 70, 1077 NA Amsterdam, Netherlands",52.3459835,4.8736807,,70,Rubensstraat,1077NA,Zuid,Zuid,Amsterdam,North Holland,Netherlands,nl,© OpenStreetMap contributors,Open Database License,https://www.openstreetmap.org/copyright
1092 XS Amsterdam,Smitstraat 28 -1,52.35650000,4.92280000,295000,66,185,1,1912,0,appartement,24,2,22.97756790395036,"Tugelaweg 40G, 1092 VG Amsterdam, Netherlands",52.35637,4.923063,,40G,Tugelaweg,1092VG,Oost,Transvaalbuurt,Amsterdam,North Holland,Netherlands,nl,© OpenAddresses contributors,BSD-3-Clause License,
1082 MX Amsterdam,Gustav Mahlerlaan,52.33110000,4.87420000,450000,93,325,1,2017,0,appartement,4,3,14.773310690004186,"Doddendaal 197, 1082 XT Amsterdam, Netherlands",52.3309672,4.8742065,,197,Doddendaal,1082XT,Zuid,Buitenveldert,Amsterdam,North Holland,Netherlands,nl,© OpenStreetMap contributors,Open Database License,https://www.openstreetmap.org/copyright
1018 DG Amsterdam,Plantage Middenlaan 36,52.36760000,4.91840000,3490000,495,1400,4,1892,1,woonhuis,65,10,4.080374033250982,"Entrepotdoksluis 4, 1018 AW Amsterdam, Netherlands",52.367578,4.9184481,,4,Entrepotdoksluis,1018AW,Centrum,Centrum,Amsterdam,North Holland,Netherlands,nl,© OpenStreetMap contributors,Open Database License,https://www.openstreetmap.org/copyright
1017 KG Amsterdam,Prinsengracht 468,52.36300000,4.89240000,4500000,335,1193,1,1906,0,appartement,44,4,0.6133852941470841,"Kerkstraat 245L, 1017 GW Amsterdam, Netherlands",52.3629963,4.8923933,,245L,Kerkstraat,1017GW,Centrum,Centrum,Amsterdam,North Holland,Netherlands,nl,© OpenStreetMap contributors,Open Database License,https://www.openstreetmap.org/copyright
1055 DK Amsterdam,Leeuwendael (Bouwnr. 14),52.38020000,4.85240000,422000,112,337,3,2017,1,woonhuis,12,5,1.7680981373911713,"Hertspieghelweg 8-3, 1055 KL Amsterdam, Netherlands",52.380187,4.852385,,8-3,Hertspieghelweg,1055KL,West,Landlust,Amsterdam,North Holland,Netherlands,nl,© OpenAddresses contributors,BSD-3-Clause License,
1071 WH Amsterdam,Joh.M. Coenenstraat 64 PP,52.35520000,4.87890000,50000,0,0,1,0,0,parkeergelegenheid,5,1,19.593762206140674,"Wouwermanstraat 26-H, 1071 LZ Amsterdam, Netherlands",52.3550303,4.8789777,,26-H,Wouwermanstraat,1071LZ,Zuid,Zuid,Amsterdam,North Holland,Netherlands,nl,© OpenStreetMap contributors,Open Database License,https://www.openstreetmap.org/copyright
1104 KN Amsterdam,Kraailookstraat 1,52.31640000,4.97760000,270000,131,360,3,2006,1,woonhuis,15,6,0,"De Kameleon, Kruitberghof 58, 1104 SE Amsterdam, Netherlands",52.3163359,4.9776084,De Kameleon,58,Kruitberghof,1104SE,,Zuidoost,Amsterdam,North Holland,Netherlands,nl,© OpenStreetMap contributors,Open Database License,https://www.openstreetmap.org/copyright
1017 LC Amsterdam,Prinsengracht 736 A*,52.36300000,4.89240000,650000,100,330,1,1906,0,appartement,18,3,0.6133852941470841,"Kerkstraat 245L, 1017 GW Amsterdam, Netherlands",52.3629963,4.8923933,,245L,Kerkstraat,1017GW,Centrum,Centrum,Amsterdam,North Holland,Netherlands,nl,© OpenStreetMap contributors,Open Database License,https://www.openstreetmap.org/copyright
1055 AX Amsterdam,Griseldestraat 28 II,52.38020000,4.85240000,250000,57,148,1,1931,0,appartement,25,3,1.7680981373911713,"Hertspieghelweg 8-3, 1055 KL Amsterdam, Netherlands",52.380187,4.852385,,8-3,Hertspieghelweg,1055KL,West,Landlust,Amsterdam,North Holland,Netherlands,nl,© OpenAddresses contributors,BSD-3-Clause License,
1102 EE Amsterdam,Hofgeest 93,52.31660000,4.95170000,120000,66,204,1,1969,0,appartement,34,2,49.79663637578256,"Raoul Wallenberghofje 3, 1102 AH Amsterdam, Netherlands",52.316997,4.952039,,3,Raoul Wallenberghofje,1102AH,Zuidoost,Bijlmer Centrum,Amsterdam,North Holland,Netherlands,nl,© OpenAddresses contributors,BSD-3-Clause License,
1052 VH Amsterdam,Gillis van Ledenberchstraat 34 B,52.37700000,4.87400000,695000,143,453,1,2010,0,appartement,32,3,2.189558787067854,"Frederik Hendrikstraat 48-1, 1052 HW Amsterdam, Netherlands",52.3770196,4.8739969,,48-1,Frederik Hendrikstraat,1052HW,West,West,Amsterdam,North Holland,Netherlands,nl,© OpenStreetMap contributors,Open Database License,https://www.openstreetmap.org/copyright
1078 EK Amsterdam,Churchill-laan 70 huis,52.34640000,4.89770000,550000,83,271,1,1906,1,appartement,25,3,11.344645539447924,"Churchill-laan 75D, 1078 DJ Amsterdam, Netherlands",52.3464982,4.8976547,,75D,Churchill-laan,1078DJ,Zuid,Zuid,Amsterdam,North Holland,Netherlands,nl,© OpenStreetMap contributors,Open Database License,https://www.openstreetmap.org/copyright
1018 WE Amsterdam,Roetersstraat 148,52.36760000,4.91840000,349000,70,221,1,1980,0,appartement,22,3,4.080374033250982,"Entrepotdoksluis 4, 1018 AW Amsterdam, Netherlands",52.367578,4.9184481,,4,Entrepotdoksluis,1018AW,Centrum,Centrum,Amsterdam,North Holland,Netherlands,nl,© OpenStreetMap contributors,Open Database License,https://www.openstreetmap.org/copyright
1058 AM Amsterdam,Stuyvesantstraat 34 I,52.35790000,4.85100000,265000,51,137,1,1926,0,appartement,22,3,3.014316145532016,"Surinameplein, 1058 Amsterdam, Netherlands",52.357885,4.8518022,Surinameplein,,Surinameplein,1058,,,Amsterdam,North Holland,Netherlands,nl,© OpenStreetMap contributors,Open Database License,https://www.openstreetmap.org/copyright
1102 TS Amsterdam,Barbusselaan 99,52.31660000,4.95170000,129000,54,135,1,1986,1,appartement,19,2,49.79663637578256,"Raoul Wallenberghofje 3, 1102 AH Amsterdam, Netherlands",52.316997,4.952039,,3,Raoul Wallenberghofje,1102AH,Zuidoost,Bijlmer Centrum,Amsterdam,North Holland,Netherlands,nl,© OpenAddresses contributors,BSD-3-Clause License,
1057 GG Amsterdam,Admiralengracht 138 I,52.36770000,4.85510000,275000,51,168,1,1925,0,appartement,15,2,0.972402630340097,"Maranatha, Cabotstraat 33, 1057 VP Amsterdam, Netherlands",52.36786965,4.855041608946916,Maranatha,33,Cabotstraat,1057VP,West,West,Amsterdam,North Holland,Netherlands,nl,© OpenStreetMap contributors,Open Database License,https://www.openstreetmap.org/copyright
1063 EL Amsterdam,Jan Janzenstraat 10,52.38140000,4.82590000,300000,133,451,3,1945,0,woonhuis,38,7,2.5954411684806953,"Van Gilsestraat 13-H, 1063 VS Amsterdam, Netherlands",52.3814121,4.8259327,,13-H,Van Gilsestraat,1063VS,Nieuw-West,Slotermeer,Amsterdam,North Holland,Netherlands,nl,© OpenStreetMap contributors,Open Database License,https://www.openstreetmap.org/copyright
1087 Amsterdam,Joris Ivensplein,52.35390000,5.00050000,14500,0,0,1,0,0,parkeergelegenheid,3,1,14.547622573122053,"Maria Austriastraat 987, 1087 JB Amsterdam, Netherlands",52.353989,5.000657,,987,Maria Austriastraat,1087JB,Oost,IJburg West,Amsterdam,North Holland,Netherlands,nl,© OpenAddresses contributors,BSD-3-Clause License,
1034 WD Amsterdam,Ibrahim Moustafapad 12,52.40750000,4.91700000,250000,87,300,1,1994,1,appartement,28,4,22.620688767871073,"Bezaanjachtplein 243, 1034 CR Amsterdam, Netherlands",52.4077,4.916939,,243,Bezaanjachtplein,1034CR,Noord,Banne Buiksloot,Amsterdam,North Holland,Netherlands,nl,© OpenAddresses contributors,BSD-3-Clause License,
1072 JH Amsterdam,Cornelis Trooststraat 50 II,52.35350000,4.89020000,300000,53,174,1,1906,0,appartement,25,3,4.566243169923167,"Eerste Jan van der Heijdenstraat 109-HV, 1072 TN Amsterdam, Netherlands",52.3534607,4.8901805,,109-HV,Eerste Jan van der Heijdenstraat,1072TN,,Zuid,Amsterdam,North Holland,Netherlands,nl,© OpenStreetMap contributors,Open Database License,https://www.openstreetmap.org/copyright
1072 JB Amsterdam,Cornelis Trooststraat 35 III,52.35350000,4.89020000,575000,120,355,1,1927,0,appartement,1,3,4.566243169923167,"Eerste Jan van der Heijdenstraat 109-HV, 1072 TN Amsterdam, Netherlands",52.3534607,4.8901805,,109-HV,Eerste Jan van der Heijdenstraat,1072TN,,Zuid,Amsterdam,North Holland,Netherlands,nl,© OpenStreetMap contributors,Open Database License,https://www.openstreetmap.org/copyright
1016 RJ Amsterdam,Lauriergracht 107 A,52.37090000,4.88160000,600000,80,270,1,1906,1,appartement,20,2,0,"Canal Ring Area of Amsterdam, Konijnenstraat 20, 1021 HR Amsterdam, Netherlands",52.3709412,4.8817323,Canal Ring Area of Amsterdam,20,Konijnenstraat,1021HR,,Centrum,Amsterdam,North Holland,Netherlands,nl,© OpenStreetMap contributors,Open Database License,https://www.openstreetmap.org/copyright
1034 GA Amsterdam,Statenjachtstraat 159,52.40750000,4.91700000,260000,92,270,1,2011,0,appartement,31,3,22.620688767871073,"Bezaanjachtplein 243, 1034 CR Amsterdam, Netherlands",52.4077,4.916939,,243,Bezaanjachtplein,1034CR,Noord,Banne Buiksloot,Amsterdam,North Holland,Netherlands,nl,© OpenAddresses contributors,BSD-3-Clause License,
1069 RR Amsterdam,Jan van Zutphenstraat 211,52.35560000,4.79070000,375000,70,185,11,2001,0,appartement,6,3,25.493785079984995,"Langswater 384, 1069 EC Amsterdam, Netherlands",52.355533,4.790341,,384,Langswater,1069EC,Nieuw-West,De Punt,Amsterdam,North Holland,Netherlands,nl,© OpenAddresses contributors,BSD-3-Clause License,
1019 PG Amsterdam,Bogortuin 84,52.37330000,4.93910000,550000,103,329,1,2000,0,appartement,39,3,5.763955155170856,"C.J.K. van Aalststraat 44, 1019 JZ Amsterdam, Netherlands",52.3732484,4.9391081,,44,C.J.K. van Aalststraat,1019JZ,,Eastern Docklands,Amsterdam,North Holland,Netherlands,nl,© OpenStreetMap contributors,Open Database License,https://www.openstreetmap.org/copyright
1015 DW Amsterdam,Prinsengracht 26,52.37840000,4.88360000,1995000,168,597,5,1969,0,woonhuis,52,6,11.715735159463115,"Westerstraat 105-1, 1015 LX Amsterdam, Netherlands",52.3783013,4.8836604,,105-1,Westerstraat,1015LX,Centrum,Centrum,Amsterdam,North Holland,Netherlands,nl,© OpenStreetMap contributors,Open Database License,https://www.openstreetmap.org/copyright
1072 TG Amsterdam,Van Ostadestraat 152 -sous,52.35350000,4.89020000,1075000,192,661,2,1902,1,appartement,24,6,4.566243169923167,"Eerste Jan van der Heijdenstraat 109-HV, 1072 TN Amsterdam, Netherlands",52.3534607,4.8901805,,109-HV,Eerste Jan van der Heijdenstraat,1072TN,,Zuid,Amsterdam,North Holland,Netherlands,nl,© OpenStreetMap contributors,Open Database License,https://www.openstreetmap.org/copyright
1012 JS Amsterdam,Dam 5 /E,52.37350000,4.89510000,1250000,129,360,1,2017,0,appartement,20,3,21.629838672501716,"Warmoesstraat 157, 1012 JC Amsterdam, Netherlands",52.373392,4.895365,,157,Warmoesstraat,1012JC,Centrum,Oudezijde,Amsterdam,North Holland,Netherlands,nl,© OpenAddresses contributors,BSD-3-Clause License,
1035 TS Amsterdam,Stoombootweg 19,52.41960000,4.89440000,799000,125,425,2,1984,1,woonhuis,42,3,5.227310669140413,"Jacob Honigstraat 5, 1035 XV Amsterdam, Netherlands",52.419555,4.8944223,,5,Jacob Honigstraat,1035XV,Noord,Oostzanerwerf,Amsterdam,North Holland,Netherlands,nl,© OpenStreetMap contributors,Open Database License,https://www.openstreetmap.org/copyright
1013 RW Amsterdam,Zaanstraat 113 huis,52.38770000,4.88390000,315000,55,158,1,1906,1,appartement,22,3,22.600580536478933,"Houtmankade 58A, 1013 MZ Amsterdam, Netherlands",52.387801,4.883611,,58A,Houtmankade,1013MZ,West,Spaarndammer- en Zeeheldenbuurt,Amsterdam,North Holland,Netherlands,nl,© OpenAddresses contributors,BSD-3-Clause License,
1093 DL Amsterdam,Pieter Vlamingstraat 167,52.36180000,4.92800000,275000,70,221,1,1992,0,appartement,48,3,0,"Dappermarkt, Tweede van Swindenstraat, 1093 GS Amsterdam, Netherlands",52.363045150000005,4.92724532349044,Dappermarkt,,Tweede van Swindenstraat,1093GS,,Oost,Amsterdam,North Holland,Netherlands,nl,© OpenStreetMap contributors,Open Database License,https://www.openstreetmap.org/copyright
1075 HL Amsterdam,De Lairessestraat 144 3,52.35180000,4.85860000,1595000,228,759,3,1906,0,appartement,33,6,12.51019917998629,"Koninginneweg 237-H, 1075 CT Amsterdam, Netherlands",52.3519024,4.8585237,,237-H,Koninginneweg,1075CT,Zuid,Zuid,Amsterdam,North Holland,Netherlands,nl,© OpenStreetMap contributors,Open Database License,https://www.openstreetmap.org/copyright
1015 DR Amsterdam,Prinsengracht 151 E,52.37840000,4.88360000,799000,96,365,2,1005,0,appartement,28,3,11.715735159463115,"Westerstraat 105-1, 1015 LX Amsterdam, Netherlands",52.3783013,4.8836604,,105-1,Westerstraat,1015LX,Centrum,Centrum,Amsterdam,North Holland,Netherlands,nl,© OpenStreetMap contributors,Open Database License,https://www.openstreetmap.org/copyright
1077 ES Amsterdam,Gerrit van der Veenstraat 132 -huis,52.34600000,4.87380000,975000,188,648,3,1927,1,appartement,30,6,8.308924963734398,"Rubensstraat 70, 1077 NA Amsterdam, Netherlands",52.3459835,4.8736807,,70,Rubensstraat,1077NA,Zuid,Zuid,Amsterdam,North Holland,Netherlands,nl,© OpenStreetMap contributors,Open Database License,https://www.openstreetmap.org/copyright
1054 CT Amsterdam,Tweede Constantijn Huygensstraat 4 e,52.36170000,4.86690000,65000,0,0,1,0,0,parkeergelegenheid,1,1,12.085615741751521,"Brederodestraat 15-2, 1054 MP Amsterdam, Netherlands",52.361808,4.86692,,15-2,Brederodestraat,1054MP,West,Helmersbuurt,Amsterdam,North Holland,Netherlands,nl,© OpenAddresses contributors,BSD-3-Clause License,
1012 DJ Amsterdam,Oudezijds Achterburgwal 173 -B,52.37350000,4.89510000,250000,33,109,1,1770,0,appartement,19,1,21.629838672501716,"Warmoesstraat 157, 1012 JC Amsterdam, Netherlands",52.373392,4.895365,,157,Warmoesstraat,1012JC,Centrum,Oudezijde,Amsterdam,North Holland,Netherlands,nl,© OpenAddresses contributors,BSD-3-Clause License,
1074 XT Amsterdam,Tweede Jan van der Heijdenstraat 91 D,52.35390000,4.90420000,440000,68,205,2,1880,0,appartement,21,4,2.0789574675973093,"Kuipersstraat 63-H, 1074 EG Amsterdam, Netherlands",52.353913,4.904222,,63-H,Kuipersstraat,1074EG,Zuid,Nieuwe Pijp,Amsterdam,North Holland,Netherlands,nl,© OpenAddresses contributors,BSD-3-Clause License,
1053 BX Amsterdam,Ten Katestraat 45 2,52.36680000,4.86810000,239000,42,136,1,1906,0,appartement,29,2,0,"De Hallen, Hannie Dankbaarpassage 20, 1053 RS Amsterdam, Netherlands",52.3667658,4.868139,De Hallen,20,Hannie Dankbaarpassage,1053RS,,West,Amsterdam,North Holland,Netherlands,nl,© OpenStreetMap contributors,Open Database License,https://www.openstreetmap.org/copyright
1106 SX Amsterdam,Parkhof 45,52.29910000,4.97540000,292500,122,325,3,1993,1,woonhuis,24,4,2.9495910662578444,"Pannerdenstraat, 1106 BG Amsterdam, Netherlands",52.2991825,4.9753742,Pannerdenstraat,,Pannerdenstraat,1106BG,,Zuidoost,Amsterdam,North Holland,Netherlands,nl,© OpenStreetMap contributors,Open Database License,https://www.openstreetmap.org/copyright
1012 WP Amsterdam,Singel 463 F,52.37350000,4.89510000,1500000,125,423,1,1997,0,appartement,20,2,21.629838672501716,"Warmoesstraat 157, 1012 JC Amsterdam, Netherlands",52.373392,4.895365,,157,Warmoesstraat,1012JC,Centrum,Oudezijde,Amsterdam,North Holland,Netherlands,nl,© OpenAddresses contributors,BSD-3-Clause License,
1025 CW Amsterdam,Dijkwater 225,52.39900000,4.93610000,211000,0,0,1,0,0,onbekend,1,1,12.750199922949465,"Buikslotermeerplein 124, 1025 EX Amsterdam, Netherlands",52.3989423,4.9362624,,124,Buikslotermeerplein,1025EX,Noord,Noord,Amsterdam,North Holland,Netherlands,nl,© OpenStreetMap contributors,Open Database License,https://www.openstreetmap.org/copyright
1062 CG Amsterdam,Theodoor van Hoytemastraat 25,52.35480000,4.83810000,347500,110,330,1,2003,0,appartement,22,4,17.33250801326791,"Koningin Wilhelminaplein 1008, 1062 KS Amsterdam, Netherlands",52.354955,4.838127,,1008,Koningin Wilhelminaplein,1062KS,Nieuw-West,Westlandgracht,Amsterdam,North Holland,Netherlands,nl,© OpenAddresses contributors,BSD-3-Clause License,
1075 AA Amsterdam,Koningslaan,52.35180000,4.85860000,8500000,542,2318,5,1907,1,woonhuis,16,11,12.51019917998629,"Koninginneweg 237-H, 1075 CT Amsterdam, Netherlands",52.3519024,4.8585237,,237-H,Koninginneweg,1075CT,Zuid,Zuid,Amsterdam,North Holland,Netherlands,nl,© OpenStreetMap contributors,Open Database License,https://www.openstreetmap.org/copyright
1072 TN Amsterdam,Eerste Jan van der Heijdenstraat 103 II,52.35350000,4.89020000,325000,50,158,1,1897,0,appartement,20,2,4.566243169923167,"Eerste Jan van der Heijdenstraat 109-HV, 1072 TN Amsterdam, Netherlands",52.3534607,4.8901805,,109-HV,Eerste Jan van der Heijdenstraat,1072TN,,Zuid,Amsterdam,North Holland,Netherlands,nl,© OpenStreetMap contributors,Open Database License,https://www.openstreetmap.org/copyright
1017 GA Amsterdam,Kerkstraat 11 -C,52.36300000,4.89240000,499000,82,280,1,1906,0,appartement,22,3,0.6133852941470841,"Kerkstraat 245L, 1017 GW Amsterdam, Netherlands",52.3629963,4.8923933,,245L,Kerkstraat,1017GW,Centrum,Centrum,Amsterdam,North Holland,Netherlands,nl,© OpenStreetMap contributors,Open Database License,https://www.openstreetmap.org/copyright
1074 EN Amsterdam,Kuipersstraat 86 I-IV,52.35390000,4.90420000,750000,125,391,4,1906,1,appartement,37,5,2.0789574675973093,"Kuipersstraat 63-H, 1074 EG Amsterdam, Netherlands",52.353913,4.904222,,63-H,Kuipersstraat,1074EG,Zuid,Nieuwe Pijp,Amsterdam,North Holland,Netherlands,nl,© OpenAddresses contributors,BSD-3-Clause License,
1107 AX Amsterdam,Wethouder In 't Veldstraat 49,52.29320000,4.98030000,155000,65,202,1,1984,1,appartement,20,3,5.755793401264633,"Sliedrechtstraat, 1107 JR Amsterdam, Netherlands",52.2932466,4.9805132,Sliedrechtstraat,,Sliedrechtstraat,1107JR,,Gein,Amsterdam,North Holland,Netherlands,nl,© OpenStreetMap contributors,Open Database License,https://www.openstreetmap.org/copyright
1107 PV Amsterdam,Toutenburgstraat 52,52.29320000,4.98030000,150000,70,210,4,1984,0,appartement,25,3,5.755793401264633,"Sliedrechtstraat, 1107 JR Amsterdam, Netherlands",52.2932466,4.9805132,Sliedrechtstraat,,Sliedrechtstraat,1107JR,,Gein,Amsterdam,North Holland,Netherlands,nl,© OpenStreetMap contributors,Open Database License,https://www.openstreetmap.org/copyright
1017 JA Amsterdam,Kerkstraat 360 A,52.36300000,4.89240000,699027,122,396,3,1989,1,appartement,43,4,0.6133852941470841,"Kerkstraat 245L, 1017 GW Amsterdam, Netherlands",52.3629963,4.8923933,,245L,Kerkstraat,1017GW,Centrum,Centrum,Amsterdam,North Holland,Netherlands,nl,© OpenStreetMap contributors,Open Database License,https://www.openstreetmap.org/copyright
1087 EN Amsterdam,IJburglaan 933,52.35390000,5.00050000,385000,94,292,1,2009,0,appartement,16,3,14.547622573122053,"Maria Austriastraat 987, 1087 JB Amsterdam, Netherlands",52.353989,5.000657,,987,Maria Austriastraat,1087JB,Oost,IJburg West,Amsterdam,North Holland,Netherlands,nl,© OpenAddresses contributors,BSD-3-Clause License,
1025 NP Amsterdam,Noord-Bevelandstraat 15,52.39900000,4.93610000,235000,64,310,2,1932,1,woonhuis,29,3,12.750199922949465,"Buikslotermeerplein 124, 1025 EX Amsterdam, Netherlands",52.3989423,4.9362624,,124,Buikslotermeerplein,1025EX,Noord,Noord,Amsterdam,North Holland,Netherlands,nl,© OpenStreetMap contributors,Open Database License,https://www.openstreetmap.org/copyright
1058 CA Amsterdam,Curaçaostraat 82 I,52.35790000,4.85100000,295000,59,194,1,1935,0,appartement,18,4,3.014316145532016,"Surinameplein, 1058 Amsterdam, Netherlands",52.357885,4.8518022,Surinameplein,,Surinameplein,1058,,,Amsterdam,North Holland,Netherlands,nl,© OpenStreetMap contributors,Open Database License,https://www.openstreetmap.org/copyright
1094 CW Amsterdam,Delistraat 28 hs,52.36260000,4.93600000,300000,55,229,1,1903,1,appartement,25,2,22.683970451466475,"Sumatrastraat 69, 1094 LR Amsterdam, Netherlands",52.362521,4.936308,,69,Sumatrastraat,1094LR,Oost,Indische Buurt West,Amsterdam,North Holland,Netherlands,nl,© OpenAddresses contributors,BSD-3-Clause License,
1095 MS Amsterdam,Zeeburger Zilt 2 (Bouwnr. 108),52.36660000,4.95200000,195500,42,105,1,2011,0,appartement,6,1,6.439024133897987,"Zeeburgerdijk 585, 1095 AE Amsterdam, Netherlands",52.36658,4.952089,,585,Zeeburgerdijk,1095AE,Oost,Indische Buurt Oost,Amsterdam,North Holland,Netherlands,nl,© OpenAddresses contributors,BSD-3-Clause License,
1011 NA Amsterdam,Valkenburgerstraat 138 -L,52.37100000,4.90410000,400000,122,342,1,2014,0,appartement,25,3,0.9358233445245736,"Keizersbrug, 1011 KV Amsterdam, Netherlands",52.3710995,4.9040025,Keizersbrug,,Keizersbrug,1011KV,,Centrum,Amsterdam,North Holland,Netherlands,nl,© OpenStreetMap contributors,Open Database License,https://www.openstreetmap.org/copyright
1055 DK Amsterdam,Leeuwendael (Bouwnr. 11),52.38020000,4.85240000,432000,112,337,3,2017,1,woonhuis,12,5,1.7680981373911713,"Hertspieghelweg 8-3, 1055 KL Amsterdam, Netherlands",52.380187,4.852385,,8-3,Hertspieghelweg,1055KL,West,Landlust,Amsterdam,North Holland,Netherlands,nl,© OpenAddresses contributors,BSD-3-Clause License,
1053 LV Amsterdam,Nassaukade 333 -hs,52.36680000,4.86810000,595000,110,295,2,1906,0,appartement,33,4,0,"De Hallen, Hannie Dankbaarpassage 20, 1053 RS Amsterdam, Netherlands",52.3667658,4.868139,De Hallen,20,Hannie Dankbaarpassage,1053RS,,West,Amsterdam,North Holland,Netherlands,nl,© OpenStreetMap contributors,Open Database License,https://www.openstreetmap.org/copyright
1054 HG Amsterdam,Overtoom 147 II,52.36170000,4.86690000,650000,116,452,2,1882,0,appartement,30,4,12.085615741751521,"Brederodestraat 15-2, 1054 MP Amsterdam, Netherlands",52.361808,4.86692,,15-2,Brederodestraat,1054MP,West,Helmersbuurt,Amsterdam,North Holland,Netherlands,nl,© OpenAddresses contributors,BSD-3-Clause License,
1106 GP Amsterdam,Mijndenhof 62,52.29910000,4.97540000,289500,120,287,3,1981,1,woonhuis,21,5,2.9495910662578444,"Pannerdenstraat, 1106 BG Amsterdam, Netherlands",52.2991825,4.9753742,Pannerdenstraat,,Pannerdenstraat,1106BG,,Zuidoost,Amsterdam,North Holland,Netherlands,nl,© OpenStreetMap contributors,Open Database License,https://www.openstreetmap.org/copyright
1086 ZR Amsterdam,Zeeburgerbaai bwnr. 1 (Bouwnr. 0),52.36280000,4.98190000,620000,155,589,3,2017,1,woonhuis,7,5,0.535708752118495,"IJburglaan 257, 1086 ZJ Amsterdam, Netherlands",52.3627971,4.9819063,,257,IJburglaan,1086ZJ,Oost,Steigereiland-Noord,Amsterdam,North Holland,Netherlands,nl,© OpenStreetMap contributors,Open Database License,https://www.openstreetmap.org/copyright
1102 SR Amsterdam,Anna Blamansingel 1,52.31660000,4.95170000,239500,101,294,8,2006,0,appartement,18,3,49.79663637578256,"Raoul Wallenberghofje 3, 1102 AH Amsterdam, Netherlands",52.316997,4.952039,,3,Raoul Wallenberghofje,1102AH,Zuidoost,Bijlmer Centrum,Amsterdam,North Holland,Netherlands,nl,© OpenAddresses contributors,BSD-3-Clause License,
1019 PE Amsterdam,Bogortuin 205,52.37330000,4.93910000,495000,117,361,1,1991,1,appartement,29,3,5.763955155170856,"C.J.K. van Aalststraat 44, 1019 JZ Amsterdam, Netherlands",52.3732484,4.9391081,,44,C.J.K. van Aalststraat,1019JZ,,Eastern Docklands,Amsterdam,North Holland,Netherlands,nl,© OpenStreetMap contributors,Open Database License,https://www.openstreetmap.org/copyright
1069 HK Amsterdam,Lederambachtstraat 180,52.35560000,4.79070000,200000,84,252,1,2004,0,appartement,31,3,25.493785079984995,"Langswater 384, 1069 EC Amsterdam, Netherlands",52.355533,4.790341,,384,Langswater,1069EC,Nieuw-West,De Punt,Amsterdam,North Holland,Netherlands,nl,© OpenAddresses contributors,BSD-3-Clause License,
1012 EL Amsterdam,Oudezijds Voorburgwal 85 1,52.37350000,4.89510000,610000,85,280,1,1650,0,appartement,27,3,21.629838672501716,"Warmoesstraat 157, 1012 JC Amsterdam, Netherlands",52.373392,4.895365,,157,Warmoesstraat,1012JC,Centrum,Oudezijde,Amsterdam,North Holland,Netherlands,nl,© OpenAddresses contributors,BSD-3-Clause License,
1059 WE Amsterdam,De Lierhof 40,52.34880000,4.84680000,425000,84,204,1,2001,0,appartement,19,3,7.424910888743452,"Sassenheimstraat 80-1, 1059 BM Amsterdam, Netherlands",52.3488658,4.8468186,,80-1,Sassenheimstraat,1059BM,Zuid,Hoofddorppleinbuurt,Amsterdam,North Holland,Netherlands,nl,© OpenStreetMap contributors,Open Database License,https://www.openstreetmap.org/copyright
1056 EP Amsterdam,Joos Banckersweg 14 2,52.37320000,4.85600000,300000,76,246,1,1939,0,appartement,33,3,25.674998739078635,"Admiralengracht 228-2, 1056 TK Amsterdam, Netherlands",52.37323,4.856375,,228-2,Admiralengracht,1056TK,West,De Krommert,Amsterdam,North Holland,Netherlands,nl,© OpenAddresses contributors,BSD-3-Clause License,
1018 ZW Amsterdam,Windroosplein 198,52.36760000,4.91840000,400000,52,166,7,1989,0,appartement,22,2,4.080374033250982,"Entrepotdoksluis 4, 1018 AW Amsterdam, Netherlands",52.367578,4.9184481,,4,Entrepotdoksluis,1018AW,Centrum,Centrum,Amsterdam,North Holland,Netherlands,nl,© OpenStreetMap contributors,Open Database License,https://www.openstreetmap.org/copyright
1019 DN Amsterdam,Oostelijke Handelskade 1209,52.37330000,4.93910000,500000,94,265,1,1997,0,appartement,40,3,5.763955155170856,"C.J.K. van Aalststraat 44, 1019 JZ Amsterdam, Netherlands",52.3732484,4.9391081,,44,C.J.K. van Aalststraat,1019JZ,,Eastern Docklands,Amsterdam,North Holland,Netherlands,nl,© OpenStreetMap contributors,Open Database License,https://www.openstreetmap.org/copyright
1013 GP Amsterdam,Korte Prinsengracht 73 III,52.38770000,4.88390000,430000,76,208,1,1960,0,appartement,31,3,22.600580536478933,"Houtmankade 58A, 1013 MZ Amsterdam, Netherlands",52.387801,4.883611,,58A,Houtmankade,1013MZ,West,Spaarndammer- en Zeeheldenbuurt,Amsterdam,North Holland,Netherlands,nl,© OpenAddresses contributors,BSD-3-Clause License,
1013 ER Amsterdam,Haarlemmerstraat 18 A,52.38770000,4.88390000,989000,159,441,4,1993,0,appartement,38,8,22.600580536478933,"Houtmankade 58A, 1013 MZ Amsterdam, Netherlands",52.387801,4.883611,,58A,Houtmankade,1013MZ,West,Spaarndammer- en Zeeheldenbuurt,Amsterdam,North Holland,Netherlands,nl,© OpenAddresses contributors,BSD-3-Clause License,
1072 JC Amsterdam,Cornelis Trooststraat 53 -II,52.35350000,4.89020000,325000,56,186,1,1904,0,appartement,11,3,4.566243169923167,"Eerste Jan van der Heijdenstraat 109-HV, 1072 TN Amsterdam, Netherlands",52.3534607,4.8901805,,109-HV,Eerste Jan van der Heijdenstraat,1072TN,,Zuid,Amsterdam,North Holland,Netherlands,nl,© OpenStreetMap contributors,Open Database License,https://www.openstreetmap.org/copyright
1082 LT Amsterdam,Arent Janszoon Ernststraat,52.33110000,4.87420000,675000,118,310,5,2004,0,appartement,24,5,14.773310690004186,"Doddendaal 197, 1082 XT Amsterdam, Netherlands",52.3309672,4.8742065,,197,Doddendaal,1082XT,Zuid,Buitenveldert,Amsterdam,North Holland,Netherlands,nl,© OpenStreetMap contributors,Open Database License,https://www.openstreetmap.org/copyright
1057 BB Amsterdam,Orteliusstraat 24 II&III,52.36770000,4.85510000,455000,116,356,2,1931,0,appartement,31,6,0.972402630340097,"Maranatha, Cabotstraat 33, 1057 VP Amsterdam, Netherlands",52.36786965,4.855041608946916,Maranatha,33,Cabotstraat,1057VP,West,West,Amsterdam,North Holland,Netherlands,nl,© OpenStreetMap contributors,Open Database License,https://www.openstreetmap.org/copyright
1092 BV Amsterdam,Tweede Oosterparkstraat 318,52.35650000,4.92280000,595000,136,401,2,1892,0,appartement,29,4,22.97756790395036,"Tugelaweg 40G, 1092 VG Amsterdam, Netherlands",52.35637,4.923063,,40G,Tugelaweg,1092VG,Oost,Transvaalbuurt,Amsterdam,North Holland,Netherlands,nl,© OpenAddresses contributors,BSD-3-Clause License,
1068 LZ Amsterdam,Osdorper Ban 285,52.35920000,4.80520000,199000,67,238,1,1960,0,appartement,20,3,1.9680665618174287,"Osdorpplein 677, 1068 TC Amsterdam, Netherlands",52.3592167,4.8052096,,677,Osdorpplein,1068TC,Nieuw-West,Nieuw-West,Amsterdam,North Holland,Netherlands,nl,© OpenStreetMap contributors,Open Database License,https://www.openstreetmap.org/copyright
1019 KJ Amsterdam,Borneolaan 218,52.37330000,4.93910000,335000,74,195,1,1990,0,appartement,24,3,5.763955155170856,"C.J.K. van Aalststraat 44, 1019 JZ Amsterdam, Netherlands",52.3732484,4.9391081,,44,C.J.K. van Aalststraat,1019JZ,,Eastern Docklands,Amsterdam,North Holland,Netherlands,nl,© OpenStreetMap contributors,Open Database License,https://www.openstreetmap.org/copyright
1069 GA Amsterdam,Osdorper Ban 587,52.35560000,4.79070000,275000,92,290,12,2007,0,appartement,31,3,25.493785079984995,"Langswater 384, 1069 EC Amsterdam, Netherlands",52.355533,4.790341,,384,Langswater,1069EC,Nieuw-West,De Punt,Amsterdam,North Holland,Netherlands,nl,© OpenAddresses contributors,BSD-3-Clause License,
1082 CT Amsterdam,Boeckenburg 29,52.33110000,4.87420000,199000,67,200,1,1960,0,appartement,12,2,14.773310690004186,"Doddendaal 197, 1082 XT Amsterdam, Netherlands",52.3309672,4.8742065,,197,Doddendaal,1082XT,Zuid,Buitenveldert,Amsterdam,North Holland,Netherlands,nl,© OpenStreetMap contributors,Open Database License,https://www.openstreetmap.org/copyright
1019 HW Amsterdam,Borneolaan 1,52.37330000,4.93910000,40000,0,0,1,0,0,onbekend,1,1,5.763955155170856,"C.J.K. van Aalststraat 44, 1019 JZ Amsterdam, Netherlands",52.3732484,4.9391081,,44,C.J.K. van Aalststraat,1019JZ,,Eastern Docklands,Amsterdam,North Holland,Netherlands,nl,© OpenStreetMap contributors,Open Database License,https://www.openstreetmap.org/copyright
1063 BN Amsterdam,Burgemeester De Vlugtlaan 287,52.38140000,4.82590000,160000,58,151,1,1958,0,appartement,23,2,2.5954411684806953,"Van Gilsestraat 13-H, 1063 VS Amsterdam, Netherlands",52.3814121,4.8259327,,13-H,Van Gilsestraat,1063VS,Nieuw-West,Slotermeer,Amsterdam,North Holland,Netherlands,nl,© OpenStreetMap contributors,Open Database License,https://www.openstreetmap.org/copyright
1087 JC Amsterdam,Maria Austriastraat 680,52.35390000,5.00050000,344000,126,378,7,2005,0,appartement,18,3,14.547622573122053,"Maria Austriastraat 987, 1087 JB Amsterdam, Netherlands",52.353989,5.000657,,987,Maria Austriastraat,1087JB,Oost,IJburg West,Amsterdam,North Holland,Netherlands,nl,© OpenAddresses contributors,BSD-3-Clause License,
1078 ST Amsterdam,Uithoornstraat 23 II,52.34640000,4.89770000,369000,74,242,1,1922,0,appartement,29,4,11.344645539447924,"Churchill-laan 75D, 1078 DJ Amsterdam, Netherlands",52.3464982,4.8976547,,75D,Churchill-laan,1078DJ,Zuid,Zuid,Amsterdam,North Holland,Netherlands,nl,© OpenStreetMap contributors,Open Database License,https://www.openstreetmap.org/copyright
